loopIteration, time (us), axisP[0], axisP[1], axisP[2], axisI[0], axisI[1], axisI[2], axisD[0], axisD[1], rcCommand[0], rcCommand[1], rcCommand[2], rcCommand[3], vbatLatest (V), magADC[0], magADC[1], magADC[2], BaroAlt (cm), gyroADC[0], gyroADC[1], gyroADC[2], accSmooth[0], accSmooth[1], accSmooth[2], motor[0], motor[1], motor[2], motor[3], flightModeFlags (flags), stateFlags (flags), failsafePhase (flags), rxSignalReceived, rxFlightChannelsValid
  0, 377701396,   1,   0,  -6,   0,   0,  -1,   0,   0,   1,   0,  -5, 1100, 0.000, 727, 305, -246, -67,   0,   0,   0,  79, 429, 4130, 1100, 1106, 1108, 1100, 0, SMALL_ANGLE, IDLE, 1, 1
 16, 377717363,   1,   0,  -6,   0,   0,  -1,   0,   0,   1,   0,  -5, 1100, 0.000, 726, 305, -239, -67,  -1,   1,   2,  81, 429, 4132, 1100, 1106, 1108, 1100, 0, SMALL_ANGLE, IDLE, 1, 1
 32, 377733294,   1,   0,  -6,   0,   0,  -1,   0,   0,   1,   0,  -5, 1100, 0.000, 726, 305, -239, -67,  -2,   1,   0,  81, 431, 4144, 1100, 1106, 1108, 1100, 0, SMALL_ANGLE, IDLE, 1, 1
 48, 377749224,   1,   0,  -6,   0,   0,  -1,   0,   0,   1,   0,  -5, 1100, 0.000, 726, 305, -239, -67,  -2,   1,   1,  78, 432, 4130, 1100, 1106, 1108, 1100, 0, SMALL_ANGLE, IDLE, 1, 1
 64, 377765121,   1,   0,  -6,   0,   0,  -1,   0,   0,   1,   0,  -5, 1100, 0.000, 726, 305, -239, -67,  -1,   0,   1,  82, 431, 4131, 1100, 1106, 1108, 1100, 0, SMALL_ANGLE, IDLE, 1, 1
 80, 377781028,   1,   0,  -6,   0,   0,  -1,   0,   0,   1,   0,  -5, 1100, 0.000, 726, 305, -239, -67,  -2,   0,   1,  84, 427, 4138, 1100, 1106, 1108, 1100, 0, SMALL_ANGLE, IDLE, 1, 1
 96, 377796949,   1,   0,  -6,   0,   0,  -1,   0,   0,   1,   0,  -5, 1100, 0.000, 726, 305, -239, -67,  -2,   0,   2,  80, 423, 4137, 1100, 1106, 1108, 1100, 0, SMALL_ANGLE, IDLE, 1, 1
112, 377812880,   1,   0,  -6,   0,   0,  -1,   0,   0,   1,   0,  -5, 1100, 0.000, 726, 305, -239, -67,  -1,   0,   2,  84, 435, 4135, 1100, 1106, 1108, 1100, 0, SMALL_ANGLE, IDLE, 1, 1
128, 377828790,   1,   0,  -6,   0,   0,  -1,   0,   0,   1,   0,  -5, 1100, 0.000, 726, 305, -239, -67,  -2,   0,   2,  81, 433, 4133, 1100, 1106, 1108, 1100, 0, SMALL_ANGLE, IDLE, 1, 1
144, 377844786,   1,   0,  -6,   0,   0,  -1,   0,   0,   1,   0,  -5, 1100, 0.000, 726, 305, -239, -67,  -2,   0,   2,  79, 432, 4128, 1100, 1106, 1108, 1100, 0, SMALL_ANGLE, IDLE, 1, 1
160, 377860735,   1,   0, -10,   0,   0,  -1,   0,   0,   1,   0, -10, 1100, 0.000, 726, 305, -239, -63,   0,   1,   2,  84, 427, 4131, 1100, 1110, 1112, 1100, 0, SMALL_ANGLE, IDLE, 1, 1
176, 377876664,   1,   0, -22,   0,   0,  -1,   0,   0,   1,   0, -22, 1100, 0.000, 726, 305, -239, -63,  -1,   1,   1,  80, 427, 4136, 1100, 1122, 1124, 1100, 0, SMALL_ANGLE, IDLE, 1, 1
192, 377892591,   1,   0, -33,   0,   0,  -1,   0,   0,   1,   0, -33, 1100, 0.000, 726, 305, -239, -61,  -2,   0,   1,  77, 429, 4132, 1100, 1133, 1135, 1100, 0, SMALL_ANGLE, IDLE, 1, 1
208, 377908520,   1,   0, -33,   0,   0,  -3,   0,   0,   1,   0, -33, 1100, 0.000, 731, 306, -251, -60,   0,   1,   3,  84, 424, 4134, 1100, 1135, 1137, 1100, 0, SMALL_ANGLE, IDLE, 1, 1
224, 377924459,   1,   0, -36,   0,   0,  -3,   0,   0,   1,   0, -36, 1100, 0.000, 731, 306, -251, -60,  -2,   1,   1,  83, 427, 4138, 1100, 1138, 1140, 1100, 0, SMALL_ANGLE, IDLE, 1, 1
240, 377940404,   1,   0, -16,   0,   0,  -1,   0,   0,   1,   0, -15, 1100, 0.000, 731, 306, -251, -59,   0,   1,   2,  80, 432, 4121, 1100, 1116, 1118, 1100, 0, SMALL_ANGLE, IDLE, 1, 1
256, 377956341,   1,   0,  15,   0,   0,   0,   0,   0,   1,   0,  16, 1100, 0.000, 731, 306, -251, -59,  -3,  -1,   3,  85, 431, 4138, 1114, 1100, 1100, 1116, 0, SMALL_ANGLE, IDLE, 1, 1
272, 377972267,   1,   0,  19,   0,   0,   0,   0,   0,   1,   0,  21, 1100, 0.000, 731, 306, -251, -59,  -1,   1,   1,  90, 428, 4122, 1118, 1100, 1100, 1120, 0, SMALL_ANGLE, IDLE, 1, 1
288, 377988200,   1,   0,  19,   0,   0,   1,   0,   0,   1,   0,  21, 1100, 0.000, 731, 306, -251, -59,  -3,   0,   1,  92, 420, 4132, 1119, 1100, 1100, 1121, 0, SMALL_ANGLE, IDLE, 1, 1
304, 378004124,   1,   0,   8,   0,   0,   2,   0,   0,   1,   0,   9, 1130, 0.000, 731, 306, -251, -59,  -3,   1,   1,  84, 425, 4138, 1139, 1119, 1121, 1141, 0, SMALL_ANGLE, IDLE, 1, 1
320, 378020052,   1,   0, -16,   0,   0,   1,   0,   0,   1,   0, -16, 1160, 0.000, 727, 305, -239, -59,  -1,  -1,   1,  78, 419, 4138, 1144, 1174, 1176, 1146, 0, SMALL_ANGLE, IDLE, 1, 1
336, 378035968,   1,   0, -17,   0,   0,   0,   0,   0,   1,   0, -17, 1172, 0.000, 727, 305, -239, -59,  -2,   1,   2,  84, 426, 4126, 1154, 1188, 1190, 1156, 0, SMALL_ANGLE, IDLE, 1, 1
352, 378051891,   1,   0, -17,   0,   0,  -1,   0,   0,   1,   0, -17, 1172, 0.000, 727, 305, -239, -59,  -2,   0,   2,  83, 425, 4136, 1153, 1189, 1191, 1155, 0, SMALL_ANGLE, IDLE, 1, 1
368, 378067766,   1,   0, -24,   0,   0,  -3,   0,   0,   1,   0, -24, 1226, 0.000, 727, 305, -239, -59,  -1,   0,   1,  90, 425, 4140, 1198, 1252, 1254, 1200, 0, SMALL_ANGLE, IDLE, 1, 1
384, 378083707,   1,   0, -39,   0,   0,  -5,   0,   0,   1,   0, -39, 1293, 0.000, 727, 305, -239, -59,  -2,   1,   2,  85, 428, 4138, 1248, 1336, 1338, 1250, 0, SMALL_ANGLE, IDLE, 1, 1
400, 378099644,   1,   0, -50,   1,   0,  -8,   0,   0,   1,   0, -51, 1355, 0.000, 727, 305, -239, -59,  -3,   1,   1,  82, 429, 4125, 1295, 1411, 1415, 1299, 0, SMALL_ANGLE, IDLE, 1, 1
416, 378115589,   1,   0, -69,   1,   0, -11,   0,   0,   1,   0, -70, 1393, 0.008, 731, 304, -252, -59,  -1,   1,   0,  79, 427, 4133, 1311, 1471, 1475, 1315, 0, SMALL_ANGLE, IDLE, 1, 1
432, 378131490,   1,   0, -69,   1,   0, -16,   0,   0,   1,   0, -70, 1393, 0.008, 731, 304, -252, -59,  -3,   1,   2,  87, 430, 4136, 1306, 1476, 1480, 1310, 0, SMALL_ANGLE, IDLE, 1, 1
448, 378147400,   1,   0, -85,   1,   0, -20,   2,  -2,   1,   0, -80, 1409, 0.008, 731, 304, -252, -59,   9,  -2,  37,  67, 467, 4109, 1298, 1512, 1516, 1310, 0, SMALL_ANGLE, IDLE, 1, 1
464, 378163326,   1,   1, -40,   1,  -1, -25,  -8,   2,   1,   0, -62, 1419, 0.008, 731, 304, -252, -59,   5, -19, -134, 104, 408, 4119, 1362, 1488, 1480, 1346, 0, SMALL_ANGLE, IDLE, 1, 1
480, 378179248,   1,  -1, -51,   1,  -1, -29,   4,   1,   1,   0, -33, 1430, 0.008, 731, 304, -252, -59,   6,   8, 110, 109, 395, 4186, 1343, 1505, 1515, 1357, 0, SMALL_ANGLE, IDLE, 1, 1
496, 378195194,  -2,   0, -17,   1,  -1, -30,  -4,  -3,   1,   0, -33, 1430, 0.000, 731, 304, -252, -59,  49,  -3, -96,  71, 479, 4088, 1384, 1486, 1468, 1382, 0, SMALL_ANGLE, IDLE, 1, 1
512, 378211114,   6,   0, -16,   2,  -1, -32,  -2,   2,   1,   0,  -5, 1439, 0.000, 808, 434, -163, -59, -56,  -7,  63, 108, 378, 4204, 1386, 1480, 1494, 1396, 0, SMALL_ANGLE, IDLE, 1, 1
528, 378227056,  -1,  -1,  13,   2,  -1, -31,   2,   0,   1,   0,  -4, 1439, 0.000, 808, 434, -163, -59,  33,  11, -106,  30, 413, 4194, 1416, 1456, 1458, 1426, 0, SMALL_ANGLE, IDLE, 1, 1
544, 378242998,   5,   1,  -8,   2,  -1, -31,   2,   1,   1,   0,  -4, 1439, 0.000, 808, 434, -163, -59, -45, -26,  22,  -7, 354, 4203, 1392, 1468, 1488, 1408, 0, SMALL_ANGLE, IDLE, 1, 1
560, 378258925,  12,   7,  15,   3,   0, -30,   5,   2,   1,   0,  -4, 1439, 0.000, 808, 434, -163, -59, -130, -94, -116, 733, 305, 4213, 1413, 1425, 1483, 1435, 0, SMALL_ANGLE, IDLE, 1, 1
576, 378274862,  20,   7,  -2,   4,   1, -30,   0,  -7,   1,   0,  -4, 1439, 0.000, 808, 434, -163, -59, -231, -95, -17, 1792, -3705, 4389, 1384, 1446, 1496, 1430, 0, SMALL_ANGLE, IDLE, 1, 1
592, 378290802,  20,   4, -19,   6,   1, -31,  -5,  -2,   1,   0,  -4, 1439, 0.000, 808, 434, -163, -59, -226, -58,  88, 681, -1016, 4571, 1371, 1465, 1513, 1407, 0, SMALL_ANGLE, IDLE, 1, 1
608, 378306716,   9,  -4,   5,   8,   1, -32,  -9,  -5,   1,   0,  -4, 1439, 0.000, 808, 434, -163, -59, -88,  41, -56, 1650, -2268, 4738, 1396, 1466, 1466, 1428, 0, SMALL_ANGLE, IDLE, 1, 1
624, 378322692,  -5,  -1,  -7,   8,   1, -32,  -6,   7,   1,   0,  -5, 1439, 0.000, 1027, 383, -20, -59,  79,  15,   8, 1244, -134, 5084, 1410, 1474, 1482, 1390, 0, SMALL_ANGLE, IDLE, 1, 1
640, 378338619,  -6,  12,   0,   7,   2, -33,   6,   6,   1,   0,  -5, 1439, 0.000, 1027, 383, -20, -59,  92, -150, -39, 304, 126, 4623, 1419, 1445, 1499, 1393, 0, SMALL_ANGLE, IDLE, 1, 1
656, 378354533,  -4,  23,  -2,   7,   3, -33,   4,   1,   1,   0, -15, 1439, 0.000, 1027, 383, -20, -62,  69, -291, -80, 112, -466, 5579, 1424, 1440, 1508, 1384, 0, SMALL_ANGLE, IDLE, 1, 1
672, 378370467,  -3,  21,   7,   6,   6, -33,   4,  -6,   1,   0, -21, 1439, 0.000, 1027, 383, -20, -64,  59, -266, -174, 219, -799, 6764, 1427, 1437, 1493, 1399, 0, SMALL_ANGLE, IDLE, 1, 1
688, 378386437,  -4,  16,  -1,   6,   7, -32,  -1,  -5,   1,   0, -20, 1439, 0.000, 1027, 383, -20, -64,  74, -206, -119,  44, -276, 5699, 1423, 1453, 1491, 1389, 0, SMALL_ANGLE, IDLE, 1, 1
704, 378402372,  -7,   8,  23,   6,   9, -32,  -7,  -3,   1,   0, -10, 1439, 0.000, 1027, 383, -20, -68, 109, -103, -203, 1120, -85, 6390, 1452, 1442, 1454, 1408, 0, SMALL_ANGLE, IDLE, 1, 1
720, 378418322,  -6,  -1,  15,   5,   9, -30,   2,  -3,   1,   0, -10, 1439, 0.000, 923, 416, -112, -68,  98,   4, -158, 316, -1282, 5343, 1428, 1448, 1460, 1420, 0, SMALL_ANGLE, IDLE, 1, 1
736, 378434286,  -6,   1,  22,   4,   9, -29,   2,   0,   1,   0,  -5, 1439, 0.000, 923, 416, -112, -71,  88, -21, -170, -66, -997, 6287, 1442, 1436, 1456, 1422, 0, SMALL_ANGLE, IDLE, 1, 1
752, 378450213,   0,   4,   7,   4,   9, -29,  -2,  -2,   1,   0,  -5, 1439, 0.000, 923, 416, -112, -73,  13, -55, -83, -157, -304, 6482, 1426, 1448, 1474, 1408, 0, SMALL_ANGLE, IDLE, 1, 1
768, 378466157,  -5,   0,  11,   4,  10, -27,  -4,  -3,   1,   0,  -6, 1439, 0.000, 923, 416, -112, -73,  85,  -9, -107, 208, -461, 7194, 1435, 1453, 1457, 1411, 0, SMALL_ANGLE, IDLE, 1, 1
784, 378482087,  -7,  -4,  30,   3,   9, -26,   0,  -4,   1,   0,  -5, 1438, 0.000, 923, 416, -112, -70, 110,  49, -218, 133, -47, 5996, 1447, 1437, 1431, 1437, 0, SMALL_ANGLE, IDLE, 1, 1
800, 378497988,  -5,  -4,   3,   3,   9, -25,   0,   0,   1,   0,  -5, 1438, 0.000, 923, 416, -112, -68,  77,  49, -56,  63, -398, 5989, 1423, 1457, 1463, 1409, 0, SMALL_ANGLE, IDLE, 1, 1
816, 378513930,  -4,  -1,  18,   2,   8, -24,   2,   9,   1,   0,  -5, 1439, 0.000, 899, 394, -137, -68,  65,  13, -146, 247, 202, 5716, 1449, 1429, 1461, 1417, 0, SMALL_ANGLE, IDLE, 1, 1
832, 378529857,  -1,   3,  13,   2,   9, -23,   1,   2,   1,   0,  -5, 1439, 0.000, 899, 394, -137, -67,  31, -44, -118, 180, -148, 7331, 1441, 1433, 1465, 1417, 0, SMALL_ANGLE, IDLE, 1, 1
848, 378545788,   5,  10,   7,   2,   9, -23,   4,  -4,   1,   0,  -8, 1439, 0.000, 899, 394, -137, -67, -47, -130, -93,  48, -121, 6379, 1427, 1429, 1481, 1419, 0, SMALL_ANGLE, IDLE, 1, 1
864, 378561733,   0,   5,   7,   3,  10, -22,  -7,  -5,   1,   0,  -8, 1439, 0.000, 899, 394, -137, -63,  15, -65, -96,  -6, 792, 5711, 1438, 1448, 1460, 1410, 0, SMALL_ANGLE, IDLE, 1, 1
880, 378577696,  -5,  -6,  18,   2,  10, -22,  -1,  -6,   1,   0, -18, 1439, 0.000, 899, 394, -137, -61,  78,  71, -222, 424,  81, 5755, 1437, 1449, 1437, 1433, 0, SMALL_ANGLE, IDLE, 1, 1
896, 378593653, -12, -16,  29,   2,   9, -21,   0,  -5,   1,   0, -30, 1439, 0.000, 899, 394, -137, -61, 165, 184, -356, 384, -522, 6218, 1445, 1453, 1409, 1449, 0, SMALL_ANGLE, IDLE, 1, 1
912, 378609596, -11, -16,  -2,   0,   7, -21,   0,   2,   1,   0, -39, 1439, 0.000, 899, 394, -137, -60, 150, 191, -226, 498, -508, 5290, 1420, 1480, 1444, 1412, 0, SMALL_ANGLE, IDLE, 1, 1
928, 378625517,  -3,  -8, -11,   0,   6, -22,   2,   4,   1,   0, -44, 1438, 0.000, 910, 394, -142, -56,  52,  93, -199, 289, -484, 5487, 1408, 1470, 1472, 1402, 0, SMALL_ANGLE, IDLE, 1, 1
944, 378641458,   6,   3,   7,   0,   6, -22,   7,   5,   1,   0, -44, 1438, 0.000, 910, 394, -142, -56, -52, -49, -306, -233, 233, 5349, 1424, 1426, 1480, 1422, 0, SMALL_ANGLE, IDLE, 1, 1
960, 378657406,  12,  13,   9,   1,   7, -22,   2,   2,   1,   0, -65, 1426, 0.000, 910, 394, -142, -53, -124, -164, -444, 137, 165, 5593, 1420, 1402, 1476, 1406, 0, SMALL_ANGLE, IDLE, 1, 1
976, 378673373,   6,  13,  -8,   2,   8, -23,   2,  -1,   1,   0, -96, 1409, 0.000, 910, 394, -142, -53, -61, -167, -522, 141, -270, 5681, 1388, 1410, 1470, 1368, 0, SMALL_ANGLE, IDLE, 1, 1
992, 378689321,   1,   7, -38,   2,   9, -26,  -1,  -3,   1,   0, -132, 1388, 0.000, 910, 394, -142, -48,   2, -88, -551, 159, 139, 5236, 1335, 1437, 1467, 1313, 0, SMALL_ANGLE, IDLE, 1, 1
1008, 378705259,  -3,  -2, -50,   2,   9, -28,  -2,  -4,   1,   0, -150, 1380, 0.000, 910, 394, -142, -45,  53,  25, -584, 364, 229, 5289, 1308, 1458, 1458, 1296, 0, SMALL_ANGLE, IDLE, 1, 1
1024, 378721201,  -4,  -8, -24,   1,   9, -30,   4,  -3,   1,   0, -150, 1380, 0.000, 919, 387, -181, -45,  70,  93, -740, 891, -1052, 5600, 1323, 1435, 1433, 1329, 0, SMALL_ANGLE, IDLE, 1, 1
1040, 378737138,   1,  -8, -21,   1,   8, -31,   2,   0,   1,   0, -165, 1378, 0.000, 919, 387, -181, -40,   7,  95, -851, 537, -175, 5811, 1322, 1426, 1434, 1330, 0, SMALL_ANGLE, IDLE, 1, 1
1056, 378753076,   8,  -6, -26,   2,   7, -32,   5,   0,   1,   0, -177, 1378, 0.000, 919, 387, -181, -37, -82,  74, -886, 127, -723, 3320, 1306, 1420, 1452, 1334, 0, SMALL_ANGLE, IDLE, 1, 1
1072, 378769031,  11,  -3, -42,   3,   7, -34,  -2,  -1,   1,   0, -199, 1378, 0.000, 919, 387, -181, -37, -119,  29, -921, 466, -1042, 4711, 1293, 1439, 1469, 1311, 0, SMALL_ANGLE, IDLE, 1, 1
1088, 378784987,  13,   0,  -6,   4,   7, -36,   0,   4,   1,   0, -199, 1378, 0.000, 919, 387, -181, -32, -145,  -9, -1141, 499, 287, 3611, 1330, 1392, 1448, 1342, 0, SMALL_ANGLE, IDLE, 1, 1
1104, 378800956,  12,   2, -10,   5,   7, -37,   2,   1,   1,   0, -214, 1378, 0.000, 919, 387, -181, -32, -135, -38, -1202, 184,  85, 5008, 1322, 1396, 1454, 1340, 0, SMALL_ANGLE, IDLE, 1, 1
1120, 378816900,   5,   7, -31,   6,   8, -38,  -3,  -2,   1,   0, -226, 1378, 0.000, 887, 310, -189, -22, -43, -90, -1145, 1139, -171, 5012, 1314, 1426, 1468, 1304, 0, SMALL_ANGLE, IDLE, 1, 1
1136, 378832835,   3,   9, -22,   6,   8, -40,  -7,  -3,   1,   0, -241, 1378, 0.000, 887, 310, -189, -16, -26, -114, -1286, 781, -305, 4871, 1328, 1424, 1456, 1304, 0, SMALL_ANGLE, IDLE, 1, 1
1152, 378848756,   5,   4, -36,   7,   9, -41,   4,  -1,   1,   0, -265, 1377, 0.000, 887, 310, -189, -16, -44, -59, -1351, 207,  19, 3527, 1296, 1426, 1482, 1304, 0, SMALL_ANGLE, IDLE, 1, 1
1168, 378864699,   3,   0, -19,   7,   9, -42,  -2,   0,   1,   0, -265, 1377, 0.000, 887, 310, -189, -9, -26,   0, -1451, 290,  15, 4509, 1317, 1421, 1455, 1315, 0, SMALL_ANGLE, IDLE, 1, 1
1184, 378880635,   3,  -7, -10,   7,   9, -44,   2,  -5,   1,   0, -290, 1377, 0.000, 887, 310, -189, -2, -18,  77, -1649,  46, -273, 5130, 1308, 1422, 1440, 1338, 0, SMALL_ANGLE, IDLE, 1, 1
1200, 378896532,   3,  -9, -19,   8,   8, -45,  -1,  -5,   1,   0, -295, 1378, 0.000, 887, 310, -189, -2, -24, 111, -1626,  53, -144, 5290, 1298, 1438, 1446, 1330, 0, SMALL_ANGLE, IDLE, 1, 1
1216, 378912431,   4,  -7,  10,   8,   7, -45,  -3,   4,   1,   0, -285, 1379, 0.000, 887, 310, -189, 2, -38,  81, -1742, 268, 296, 4265, 1339, 1401, 1427, 1349, 0, SMALL_ANGLE, IDLE, 1, 1
1232, 378928365,   6,  -3,   8,   9,   7, -44,   1,   4,   1,   0, -285, 1379, 0.000, 899, 300, -189, 2, -52,  38, -1729, 286, -506, 3885, 1335, 1391, 1439, 1351, 0, SMALL_ANGLE, IDLE, 1, 1
1248, 378944333,   6,   0,  16,   9,   7, -42,   3,   0,   1,   0, -273, 1379, 0.000, 899, 300, -189, 8, -57, -15, -1706,  89, -284, 3806, 1342, 1380, 1430, 1364, 0, SMALL_ANGLE, IDLE, 1, 1
1264, 378960280,   5,   3,  34,  10,   7, -40,   0,   0,   1,   0, -262, 1379, 0.000, 899, 300, -189, 12, -48, -45, -1748,  22, -432, 4774, 1368, 1360, 1410, 1378, 0, SMALL_ANGLE, IDLE, 1, 1
1280, 378976223,   2,   5,  25,  10,   7, -38,  -2,  -2,   1,   0, -253, 1380, 0.000, 899, 300, -189, 12, -14, -71, -1646, -128, -253, 4769, 1367, 1373, 1413, 1367, 0, SMALL_ANGLE, IDLE, 1, 1
1296, 378992190,   0,   9,  41,  10,   8, -36,  -4,   1,   1,   0, -238, 1379, 0.000, 899, 300, -189, 18,  24, -123, -1653,  20,  10, 5076, 1396, 1350, 1398, 1372, 0, SMALL_ANGLE, IDLE, 1, 1
1312, 379008109,  -4,   8,  29,  10,   9, -34,  -8,   2,   1,   0, -238, 1379, 0.000, 899, 300, -189, 25,  70, -107, -1578, -40, -143, 5404, 1395, 1367, 1401, 1353, 0, SMALL_ANGLE, IDLE, 1, 1
1328, 379024059,  -7,   7,  31,  10,   9, -32,  -6,   2,   1,   0, -228, 1379, 0.000, 900, 256, -178, 25, 105, -97, -1535,  -6, -117, 5274, 1399, 1365, 1395, 1357, 0, SMALL_ANGLE, IDLE, 1, 1
1344, 379040011, -12,   5,  21,   9,  10, -31,  -7,  -3,   1,   0, -220, 1378, 0.000, 900, 256, -178, 32, 169, -71, -1428, -55,  24, 4548, 1390, 1386, 1390, 1346, 0, SMALL_ANGLE, IDLE, 1, 1
1360, 379055937, -12,   5,  20,   8,  10, -29,  -2,  -5,   1,   0, -218, 1377, 0.000, 900, 256, -178, 32, 168, -67, -1408, -316,  99, 4591, 1384, 1382, 1390, 1352, 0, SMALL_ANGLE, IDLE, 1, 1
1376, 379071899, -14,   0,  51,   6,  11, -27,   0,  -6,   1,   0, -213, 1378, 0.000, 900, 256, -178, 36, 194, -11, -1564, -383, -150, 4536, 1415, 1357, 1351, 1389, 0, SMALL_ANGLE, IDLE, 1, 1
1392, 379087870, -11,  -2,  23,   5,  11, -25,   2,  -3,   1,   0, -213, 1378, 0.000, 900, 256, -178, 39, 152,  19, -1398, 202, -481, 4701, 1386, 1378, 1382, 1366, 0, SMALL_ANGLE, IDLE, 1, 1
1408, 379103810,  -8,   0,  17,   4,  11, -24,   2,  -1,   1,   0, -205, 1378, 0.000, 900, 256, -178, 39, 118,  -2, -1315, -91, -431, 3663, 1383, 1377, 1393, 1359, 0, SMALL_ANGLE, IDLE, 1, 1
1424, 379119758,  -6,   2,  31,   4,  11, -22,   2,   1,   0,   0, -197, 1378, 0.000, 935, 244, -188, 44,  69, -37, -1348, 306, 255, 3639, 1401, 1355, 1383, 1373, 0, SMALL_ANGLE, IDLE, 1, 1
1440, 379135693,  -2,   6,  36,   3,  11, -20,   2,   0,   0,   0, -181, 1377, 0.000, 935, 244, -188, 47,  20, -78, -1286, 188, -372, 4986, 1407, 1341, 1381, 1379, 0, SMALL_ANGLE, IDLE, 1, 1
1456, 379151651,   0,   6,  27,   3,  12, -18,   1,  -1,   0,   0, -181, 1377, 0.000, 935, 244, -188, 47,  -5, -87, -1234, 1873, -122, 4893, 1399, 1347, 1389, 1373, 0, SMALL_ANGLE, IDLE, 1, 1
1472, 379167585,   0,   6,  47,   4,  12, -15,  -1,  -3,   0,  -1, -162, 1377, 0.000, 935, 244, -188, 52, -12, -115, -1240, 2128, -2259, 4623, 1421, 1327, 1363, 1397, 0, SMALL_ANGLE, IDLE, 1, 1
1488, 379183507,  -2,   1,  37,   3,  13, -12,   2,  -4,   0,  -3, -134, 1377, 0.000, 935, 244, -188, 52,  23, -96, -1016, 1403, -197, 4755, 1409, 1339, 1365, 1395, 0, SMALL_ANGLE, IDLE, 1, 1
1504, 379199474,  -3,  -7,  69,   3,  12,  -8,   2,   2,   0,  -6, -105, 1375, 0.008, 935, 244, -188, 55,  28, -71, -1042, 2321, -205, 4374, 1441, 1305, 1323, 1431, 0, SMALL_ANGLE, IDLE, 1, 1
1520, 379215400,  -2, -11,  70,   3,  11,  -5,   2,   1,   0,  -7, -83, 1365, 0.008, 935, 244, -188, 60,  23, -46, -913, 1374, -278, 4875, 1428, 1296, 1304, 1432, 0, SMALL_ANGLE, IDLE, 1, 1
1536, 379231363,  -1, -10,  35,   3,  10,  -2,   0,   2,   0,  -7, -83, 1365, 0.000, 964, 220, -189, 60,  15, -57, -702, 322,  -4, 5430, 1398, 1328, 1336, 1398, 0, SMALL_ANGLE, IDLE, 1, 1
1552, 379247318,   3,  -6,  27,   3,  10,   1,   1,   4,   0,  -8, -69, 1355, 0.000, 964, 220, -189, 63, -40, -130, -576,  57, 118, 4840, 1384, 1312, 1342, 1382, 0, SMALL_ANGLE, IDLE, 1, 1
1568, 379263277,   1,   1,  20,   3,   9,   2,   0,   7,   0,  -9, -66, 1338, 0.000, 964, 220, -189, 68, -24, -241, -514, -201,  14, 4345, 1373, 1295, 1337, 1347, 0, SMALL_ANGLE, IDLE, 1, 1
1584, 379279203,  -2,   5,  33,   3,  10,   3,  -3,  -1,   0, -10, -58, 1326, 0.000, 964, 220, -189, 68,  17, -314, -549, -151, -61, 4432, 1378, 1278, 1302, 1346, 0, SMALL_ANGLE, IDLE, 1, 1
1600, 379295170,  -2,   7,  32,   3,  10,   5,  -1,  -3,   0, -10, -45, 1312, 0.000, 964, 220, -189, 75,  18, -335, -465, 100, -59, 4613, 1363, 1261, 1289, 1335, 0, SMALL_ANGLE, IDLE, 1, 1
1616, 379311106,  -2,   6,  29,   3,  11,   7,  -1,  -3,   0, -10, -45, 1312, 0.000, 964, 220, -189, 75,  23, -323, -448, 1235, -394, 4427, 1362, 1262, 1290, 1334, 0, SMALL_ANGLE, IDLE, 1, 1
1632, 379327047,  -4,   0,  36,   2,  11,   9,   0,  -4,   0, -10, -29, 1306, 0.000, 975, 192, -222, 79,  49, -255, -393, 2326, -622, 3299, 1360, 1256, 1266, 1342, 0, SMALL_ANGLE, IDLE, 1, 1
1648, 379342966,  -8,  -3,  29,   2,  11,  11,  -3,  -4,   0, -10, -17, 1304, 0.000, 975, 192, -222, 85,  88, -213, -279, 1379, -2332, 3206, 1357, 1269, 1259, 1331, 0, SMALL_ANGLE, IDLE, 1, 1
1664, 379358913, -11,  -3,  18,   1,  11,  12,   3,   3,   0, -10, -14, 1304, 0.000, 975, 192, -222, 85, 130, -218, -199, 609, -991, 3291, 1352, 1270, 1278, 1316, 0, SMALL_ANGLE, IDLE, 1, 1
1680, 379374842,  -4,  -5,   0,   0,  11,  13,   2,   0,   0, -10, -14, 1304, 0.000, 975, 192, -222, 88,  40, -184, -88,  89, -67, 3488, 1325, 1287, 1295, 1309, 0, SMALL_ANGLE, IDLE, 1, 1
1696, 379390795,  11,  -3, -14,   1,  10,  13,  10,   2,   1,  -9, -12, 1304, 0.000, 975, 192, -222, 90, -120, -195,  10,  72, -207, 3731, 1290, 1274, 1336, 1316, 0, SMALL_ANGLE, IDLE, 1, 1
1712, 379406746,  19,   1,  -6,   2,  10,  13,   5,   0,   1,  -8, -11, 1305, 0.000, 975, 192, -222, 90, -213, -219, -37, 397, 355, 3336, 1297, 1261, 1335, 1327, 0, SMALL_ANGLE, IDLE, 1, 1
1728, 379422683,  19,   3,   4,   4,  11,  13,  -5,  -2,   1,  -8,  -8, 1306, 0.000, 986, 186, -236, 94, -210, -247, -76, 239, 124, 3552, 1317, 1259, 1319, 1329, 0, SMALL_ANGLE, IDLE, 1, 1
1744, 379438623,  18,  10,   1,   6,  11,  13,  -1,   4,   1,  -7,  -8, 1307, 0.000, 986, 186, -236, 94, -197, -298, -58,  91, -69, 3645, 1323, 1245, 1341, 1319, 0, SMALL_ANGLE, IDLE, 1, 1
1760, 379454595,   8,  12, -16,   7,  12,  13,   1,   1,   1,  -7,  -8, 1307, 0.000, 986, 186, -236, 100, -80, -320,  51, -28, 135, 3514, 1313, 1269, 1351, 1295, 0, SMALL_ANGLE, IDLE, 1, 1
1776, 379470527,  -1,   9,   0,   7,  13,  13,  -8,  -4,   1,  -7,  -8, 1306, 0.000, 986, 186, -236, 107,  38, -291, -53, -89,  89, 3782, 1339, 1277, 1309, 1299, 0, SMALL_ANGLE, IDLE, 1, 1
1792, 379486462,  -8,   3,   8,   7,  14,  13,  -8,  -4,   1,  -8,  -9, 1306, 0.000, 986, 186, -236, 107, 121, -246, -110, -111, -24, 3508, 1349, 1281, 1289, 1305, 0, SMALL_ANGLE, IDLE, 1, 1
1808, 379502367, -10,  -1,  -6,   6,  14,  13,   2,  -3,   1,  -8,  -9, 1306, 0.000, 986, 186, -236, 115, 140, -195, -23,  71, -84, 3514, 1325, 1291, 1307, 1301, 0, SMALL_ANGLE, IDLE, 1, 1
1824, 379518276, -12,  -3, -13,   5,  14,  13,   3,   0,   1,  -7,  -8, 1306, 0.000, 986, 186, -236, 123, 163, -144,  28, 223, -102, 3224, 1321, 1299, 1313, 1291, 0, SMALL_ANGLE, IDLE, 1, 1
1840, 379534206, -12,  -8,   7,   3,  13,  12,   0,  -1,   1,  -7,  -8, 1306, 0.000, 1020, 186, -234, 123, 161, -85, -99, 227, -162, 3340, 1338, 1292, 1282, 1312, 0, SMALL_ANGLE, IDLE, 1, 1
1856, 379550139,  -5, -10, -13,   2,  12,  12,   5,  -5,   1,  -7,  -8, 1306, 0.008, 1020, 186, -234, 131,  81, -55,  30, -83, 114, 3183, 1300, 1308, 1306, 1310, 0, SMALL_ANGLE, IDLE, 1, 1
1872, 379566134,   4, -10,  -4,   2,  11,  12,   6,   1,   1,  -7,  -7, 1306, 0.008, 1020, 186, -234, 131, -34, -59, -20, 359, -124, 3507, 1304, 1284, 1312, 1324, 0, SMALL_ANGLE, IDLE, 1, 1
1888, 379582064,  11,  -9,  -7,   3,  10,  11,   0,   0,   1,  -7,  -8, 1305, 0.000, 1020, 186, -234, 139, -120, -70,  -9, 875, -21, 3271, 1296, 1286, 1316, 1322, 0, SMALL_ANGLE, IDLE, 1, 1
1904, 379598012,  18, -11,   3,   5,   9,  11,  -1,  -7,   1,  -7,  -8, 1305, 0.000, 1020, 186, -234, 147, -200, -51, -71,  72, 177, 3587, 1288, 1278, 1304, 1350, 0, SMALL_ANGLE, IDLE, 1, 1
1920, 379613959,  21,  -5,   7,   7,   9,  11,   1,   1,   1,  -7,  -8, 1305, 0.000, 1020, 186, -234, 147, -234, -116, -92, -71, -31, 4098, 1299, 1253, 1321, 1347, 0, SMALL_ANGLE, IDLE, 1, 1
1936, 379629881,  14,  -2, -12,   8,   8,  11,  -5,   4,   1,  -7,  -9, 1305, 0.000, 1011, 171, -236, 156, -159, -157,  13, 360, -652, 3130, 1297, 1279, 1333, 1311, 0, SMALL_ANGLE, IDLE, 1, 1
1952, 379645852,   5,   2, -30,   9,   8,  11,  -4,   2,   1,  -8,  -9, 1305, 0.000, 1011, 171, -236, 164, -41, -225, 121, 116, -162, 3776, 1288, 1302, 1346, 1284, 0, SMALL_ANGLE, IDLE, 1, 1
1968, 379661793,  -9,   8, -10,   9,   9,   9, -13,   2,   1,  -8, -10, 1306, 0.000, 1011, 171, -236, 164, 131, -296,  -4, 801, -67, 3520, 1337, 1301, 1313, 1273, 0, SMALL_ANGLE, IDLE, 1, 1
1984, 379677737, -17,  12,  -9,   8,  10,   8,  -1,   2,   1,  -8, -10, 1306, 0.000, 1011, 171, -236, 172, 220, -348,  -9, 382, -135, 3822, 1339, 1293, 1321, 1271, 0, SMALL_ANGLE, IDLE, 1, 1
2000, 379693675, -24,  12,  -1,   6,  11,   8,  -1,   4,   0,  -9,  -9, 1306, 0.000, 1011, 171, -236, 172, 285, -376, -53, 1442, -21, 3543, 1359, 1291, 1307, 1267, 0, SMALL_ANGLE, IDLE, 1, 1
2016, 379709626, -23,  11,   5,   3,  12,   8,   2,  -3,   0, -10,  -8, 1307, 0.000, 1011, 171, -236, 181, 280, -382, -83, 421, 156, 3736, 1358, 1292, 1296, 1282, 0, SMALL_ANGLE, IDLE, 1, 1
2032, 379725585, -15,   4, -17,   2,  13,   8,   4,  -4,   0, -11,  -6, 1307, 0.000, 1033, 187, -231, 189, 180, -327,  67,  93, -452, 3518, 1320, 1312, 1320, 1276, 0, SMALL_ANGLE, IDLE, 1, 1
2048, 379741521,  -4,   0,   3,   1,  13,   7,   9,  -3,   0, -11,  -6, 1307, 0.000, 1033, 187, -231, 189,  46, -274, -56,  13, -157, 3500, 1321, 1281, 1313, 1313, 0, SMALL_ANGLE, IDLE, 1, 1
2064, 379757466,   4,  -6, -16,   1,  13,   7,   4,  -5,   0, -11,  -6, 1307, 0.000, 1033, 187, -231, 198, -58, -200,  58, -69, -377, 3673, 1291, 1305, 1327, 1305, 0, SMALL_ANGLE, IDLE, 1, 1
2080, 379773386,   9, -13,  -3,   1,  12,   7,  -2,  -2,   0, -13,  -7, 1306, 0.000, 1033, 187, -231, 203, -123, -161, -29, -143, -270, 3688, 1299, 1297, 1307, 1321, 0, SMALL_ANGLE, IDLE, 1, 1
2096, 379789328,  11, -17,  -2,   2,  10,   6,   2,   0,   0, -14,  -8, 1306, 0.000, 1033, 187, -231, 203, -142, -136, -42,  20, -92, 3722, 1288, 1294, 1310, 1332, 0, SMALL_ANGLE, IDLE, 1, 1
2112, 379805309,   7, -19, -20,   3,   9,   6,  -3,   0,   0, -16,  -8, 1306, 0.000, 1033, 187, -231, 209, -98, -170,  68, 371, -96, 3764, 1275, 1323, 1317, 1309, 0, SMALL_ANGLE, IDLE, 1, 1
2128, 379821238,   1, -13,  14,   4,   7,   6,  -3,   3,   0, -16,  -8, 1306, 0.000, 1033, 187, -231, 209, -26, -242, -136, 208, -691, 4333, 1321, 1287, 1285, 1331, 0, SMALL_ANGLE, IDLE, 1, 1
2144, 379837192,  -5,  -7, -10,   4,   6,   5,  -5,   3,   0, -16,  -9, 1306, 0.000, 1056, 172, -236, 213,  61, -304,   1, 280, -665, 3683, 1309, 1315, 1307, 1293, 0, SMALL_ANGLE, IDLE, 1, 1
2160, 379853149, -10,  -2, -18,   3,   6,   5,  -5,   2,   0, -16,  -9, 1306, 0.000, 1056, 172, -236, 219, 112, -369,  52, 229, -297, 3883, 1311, 1325, 1313, 1275, 0, SMALL_ANGLE, IDLE, 1, 1
2176, 379869066, -13,   5,  -4,   2,   6,   5,   4,   3,   0, -15,  -8, 1307, 0.000, 1056, 172, -236, 219, 152, -436, -24, 1136, -417, 3426, 1329, 1299, 1313, 1287, 0, SMALL_ANGLE, IDLE, 1, 1
2192, 379884993, -13,   9,   3,   1,   7,   5,  -3,   1,   0, -15,  -8, 1306, 0.000, 1056, 172, -236, 226, 154, -481, -72, 597, -153, 2268, 1346, 1296, 1300, 1282, 0, SMALL_ANGLE, IDLE, 1, 1
2208, 379900925,  -9,  10,  -6,  -1,   8,   4,   4,   0,   0, -15,  -8, 1306, 0.044, 1056, 172, -236, 230, 111, -498, -17, 395, -570, 3584, 1328, 1296, 1320, 1280, 0, SMALL_ANGLE, IDLE, 1, 1
2224, 379916855,  -5,  13,   4,  -1,   9,   4,   4,   0,   0, -14,  -8, 1306, 0.044, 1056, 172, -236, 230,  52, -509, -77, -21,  64, 3601, 1338, 1278, 1318, 1290, 0, SMALL_ANGLE, IDLE, 1, 1
2240, 379932791,   6,  15,  -2,  -1,  10,   4,   1,  -4,   1, -12,  -9, 1306, 0.000, 1087, 205, -240, 236, -57, -482, -47, -18, -50, 3527, 1323, 1277, 1331, 1293, 0, SMALL_ANGLE, IDLE, 1, 1
2256, 379948735,  14,  15,   1,   0,  12,   4,  10,   0,   1, -11,  -9, 1307, 0.000, 1087, 205, -240, 236, -156, -461, -69, 832,  83, 3403, 1315, 1251, 1353, 1309, 0, SMALL_ANGLE, IDLE, 1, 1
2272, 379964704,  19,   8,  -5,   1,  13,   3,  -1,  -8,   1, -11,  -9, 1307, 0.000, 1087, 205, -240, 242, -210, -379, -29,  20, 177, 3506, 1299, 1277, 1341, 1311, 0, SMALL_ANGLE, IDLE, 1, 1
2288, 379980645,  22,   2,  -6,   3,  13,   3,   0,  -3,   1, -11,  -9, 1306, 0.000, 1087, 205, -240, 246, -248, -306, -21,  56, -30, 3784, 1290, 1272, 1346, 1316, 0, SMALL_ANGLE, IDLE, 1, 1
2304, 379996585,  21,  -5,   3,   5,  13,   3,  -3,  -3,   1, -11,  -8, 1306, 0.000, 1087, 205, -240, 246, -239, -208, -73, -24,  64, 3171, 1294, 1272, 1328, 1330, 0, SMALL_ANGLE, IDLE, 1, 1
2320, 380012563,  15, -12,   6,   7,  12,   3,  -7,  -4,   1, -11,  -8, 1306, 0.000, 1087, 205, -240, 252, -170, -134, -88,  78, 142, 3980, 1296, 1286, 1308, 1334, 0, SMALL_ANGLE, IDLE, 1, 1
2336, 380028458,   8, -10,   8,   8,  11,   3,  -5,  -1,   1, -10,  -9, 1306, 0.000, 1076, 154, -237, 256, -80, -133, -108, -27, -155, 3662, 1306, 1284, 1306, 1328, 0, SMALL_ANGLE, IDLE, 1, 1
2352, 380044428,   0,  -7,  -3,   8,  11,   2,  -1,   3,   1, -10,  -9, 1306, 0.000, 1076, 154, -237, 256,  23, -167, -43, -25,  76, 3672, 1305, 1293, 1321, 1305, 0, SMALL_ANGLE, IDLE, 1, 1
2368, 380060363,  -8,  -3, -10,   8,  10,   2,  -5,   3,   1, -10,  -9, 1306, 0.000, 1076, 154, -237, 258, 123, -213,   5, -17, 128, 3782, 1313, 1309, 1319, 1283, 0, SMALL_ANGLE, IDLE, 1, 1
2384, 380076284, -10,   0,   3,   7,  10,   1,   1,  -3,   1, -10,  -9, 1305, 0.000, 1076, 154, -237, 258, 141, -247, -78, -285, 132, 3662, 1318, 1296, 1306, 1300, 0, SMALL_ANGLE, IDLE, 1, 1
2400, 380092226,  -9,   3, -10,   6,  10,   1,   3,   4,   1, -10, -10, 1305, 0.000, 1076, 154, -237, 262, 126, -289,  -4,  95, 186, 3758, 1313, 1297, 1331, 1279, 0, SMALL_ANGLE, IDLE, 1, 1
2416, 380108138,  -1,   1,   5,   6,  10,   0,   6,  -4,   1, -10, -10, 1305, 0.000, 1076, 154, -237, 265,  29, -271, -98, 522, 242, 3606, 1306, 1282, 1318, 1314, 0, SMALL_ANGLE, IDLE, 1, 1
2432, 380124071,   7,   1,   1,   6,  11,   0,   5,  -2,   1, -10, -10, 1305, 0.000, 1076, 154, -237, 265, -65, -264, -73, -74, 175, 3851, 1298, 1276, 1332, 1314, 0, SMALL_ANGLE, IDLE, 1, 1
2448, 380140023,  11,   2,  -6,   7,  11,   1,   2,   3,   0, -10,  -9, 1305, 0.000, 1081, 186, -239, 270, -144, -283, -26,  85, 183, 3794, 1296, 1274, 1346, 1304, 0, SMALL_ANGLE, IDLE, 1, 1
2464, 380155966,  16,   3,   7,   8,  11,   1,   2,  -1,   0, -10,  -8, 1305, 0.000, 1081, 186, -239, 273, -196, -289, -97, -212, 219, 4011, 1300, 1258, 1336, 1326, 0, SMALL_ANGLE, IDLE, 1, 1
2480, 380171903,  16,   2, -10,  10,  11,   1,  -5,   0,   0, -11,  -7, 1305, 0.000, 1081, 186, -239, 273, -196, -306,  12, -165, -80, 4085, 1288, 1280, 1348, 1304, 0, SMALL_ANGLE, IDLE, 1, 1
2496, 380187856,  14,   2,  -6,  11,  11,   1,   1,   1,   0, -11,  -7, 1305, 0.000, 1081, 186, -239, 278, -179, -302,  -9,  90, -13, 3800, 1288, 1270, 1350, 1312, 0, SMALL_ANGLE, IDLE, 1, 1
2512, 380203806,   7,   2,   9,  12,  12,   1,  -1,  -1,   0, -11,  -7, 1305, 0.000, 1081, 186, -239, 278, -97, -303, -107, 102, 132, 3190, 1310, 1264, 1326, 1320, 0, SMALL_ANGLE, IDLE, 1, 1
2528, 380219746,  -3,   1,  -1,  12,  12,   1,  -8,  -1,   0, -11,  -7, 1305, 0.000, 1081, 186, -239, 284,  36, -290, -42, -62, 231, 3557, 1316, 1292, 1318, 1294, 0, SMALL_ANGLE, IDLE, 1, 1
2544, 380235671,  -5,   0, -10,  12,  12,   0,   0,   0,   0, -11,  -8, 1305, 0.000, 1130, 148, -232, 292,  63, -271,  15, 291,  33, 3887, 1300, 1296, 1334, 1290, 0, SMALL_ANGLE, IDLE, 1, 1
2560, 380251611,  -8,  -3,   6,  11,  12,   0,  -1,  -1,   0, -11,  -8, 1305, 0.008, 1130, 148, -232, 292,  90, -232, -91,  60, 450, 3740, 1317, 1289, 1309, 1305, 0, SMALL_ANGLE, IDLE, 1, 1
2576, 380267542,  -7,  -7,  -7,  11,  11,   0,   0,   0,   0, -11,  -8, 1305, 0.008, 1130, 148, -232, 296,  78, -193,  -8,  72, 351, 3936, 1298, 1304, 1320, 1298, 0, SMALL_ANGLE, IDLE, 1, 1
2592, 380283499,  -5,  -7,  -7,  10,  11,   0,  -2,  -3,   1, -10,  -7, 1305, 0.000, 1130, 148, -232, 302,  81, -170,  -7, -33, 147, 3632, 1296, 1308, 1316, 1300, 0, SMALL_ANGLE, IDLE, 1, 1
2608, 380299444,   0,  -4,   9,  10,  10,   0,   4,   2,   1,  -9,  -7, 1306, 0.000, 1130, 148, -232, 302,  19, -183, -102, 161, 168, 3870, 1309, 1275, 1319, 1321, 0, SMALL_ANGLE, IDLE, 1, 1
2624, 380315381,   2,   0,  -8,  10,  10,   0,   1,   2,   1,  -7,  -7, 1306, 0.000, 1130, 148, -232, 309,  -5, -185,   1, 143, 344, 3676, 1297, 1289, 1339, 1299, 0, SMALL_ANGLE, IDLE, 1, 1
2640, 380331345,   3,   2,   4,  10,  10,   0,  -1,  -5,   1,  -6,  -7, 1307, 0.000, 1138, 176, -232, 309, -20, -177, -75, 317,  83, 3876, 1306, 1284, 1322, 1316, 0, SMALL_ANGLE, IDLE, 1, 1
2656, 380347277,   4,   3, -20,  11,  10,   0,   2,   3,   1,  -6,  -7, 1307, 0.000, 1138, 176, -232, 313, -31, -196,  79, 121,  44, 3815, 1286, 1294, 1360, 1288, 0, SMALL_ANGLE, IDLE, 1, 1
2672, 380363207,   4,   4,   3,  11,  11,   0,   0,   0,   1,  -5,  -8, 1306, 0.008, 1138, 176, -232, 315, -31, -183, -69, -28, 179, 3415, 1309, 1273, 1333, 1309, 0, SMALL_ANGLE, IDLE, 1, 1
2688, 380379157,   2,   6,   3,  11,  11,  -1,  -1,  -5,   1,  -4,  -8, 1306, 0.008, 1138, 176, -232, 315, -13, -177, -71, -61, 212, 3564, 1308, 1280, 1328, 1308, 0, SMALL_ANGLE, IDLE, 1, 1
2704, 380395104,   3,   8, -10,  11,  12,  -1,  -1,  -4,   1,  -2,  -8, 1306, 0.008, 1138, 176, -232, 320, -16, -161,   8,  58, 139, 4088, 1298, 1288, 1346, 1292, 0, SMALL_ANGLE, IDLE, 1, 1
2720, 380411076,   3,   4,   5,  12,  12,  -1,   3,   0,   1,  -2,  -8, 1306, 0.000, 1138, 176, -232, 320, -24, -111, -80, 264, 147, 3742, 1308, 1268, 1336, 1312, 0, SMALL_ANGLE, IDLE, 1, 1
2736, 380427021,   0,  -1,   2,  12,  13,  -1,  -1,  -5,   1,  -1,  -7, 1307, 0.000, 1138, 176, -232, 323,  13, -20, -61, -225, 236, 3701, 1304, 1288, 1324, 1312, 0, SMALL_ANGLE, IDLE, 1, 1
2752, 380442999,   1,  -3,  -2,  12,  13,  -2,  -3,  -4,   1,   0,  -7, 1306, 0.000, 1160, 161, -229, 328,  10,  32, -36, -255, 132, 3810, 1298, 1294, 1326, 1306, 0, SMALL_ANGLE, IDLE, 1, 1
2768, 380458956,  -2,  -7,   0,  12,  12,  -2,   2,   0,   1,   0,  -7, 1305, 0.000, 1160, 161, -229, 328,  43,  80, -50,  38, -109, 3573, 1296, 1290, 1324, 1310, 0, SMALL_ANGLE, IDLE, 1, 1
2784, 380474874,  -1, -10,  -2,  12,  11,  -2,   0,  -4,   1,   0,  -8, 1305, 0.000, 1160, 161, -229, 331,  34, 116, -37, -60, 298, 3453, 1287, 1301, 1317, 1315, 0, SMALL_ANGLE, IDLE, 1, 1
2800, 380490842,  -3, -10,  -3,  11,  10,  -2,  -3,   0,   1,   0,  -8, 1305, 0.000, 1160, 161, -229, 336,  56, 119, -35, 257,  88, 3943, 1295, 1305, 1315, 1305, 0, SMALL_ANGLE, IDLE, 1, 1
2816, 380506819,  -1,  -8,  -6,  11,   9,  -2,   5,   2,   1,   0,  -8, 1306, 0.000, 1160, 161, -229, 336,  34,  94, -13,  16,  23, 3682, 1286, 1296, 1332, 1310, 0, SMALL_ANGLE, IDLE, 1, 1
2832, 380522770,  -2,  -6, -10,  11,   9,  -2,  -1,   0,   1,   0,  -9, 1307, 0.000, 1160, 161, -229, 339,  40,  65,  -1,   3, 473, 3713, 1290, 1308, 1330, 1300, 0, SMALL_ANGLE, IDLE, 1, 1
2848, 380538714,  -1,  -2,  -8,  11,   8,  -3,  -4,   0,   1,   0,  -8, 1307, 0.000, 1143, 158, -227, 339,  36,  21,   0, -175, 362, 3744, 1296, 1306, 1330, 1296, 0, SMALL_ANGLE, IDLE, 1, 1
2864, 380554668,  -1,   0,   7,  11,   8,  -3,   1,   2,   1,   0,  -8, 1307, 0.000, 1143, 158, -227, 345,  33, -14, -94, 216, 132, 3680, 1310, 1282, 1324, 1312, 0, SMALL_ANGLE, IDLE, 1, 1
2880, 380570582,   2,   1,  11,  11,   8,  -2,   1,  -3,   1,   0,  -7, 1306, 0.008, 1143, 158, -227, 348,  -7, -20, -118, -182, 235, 3544, 1307, 1277, 1317, 1323, 0, SMALL_ANGLE, IDLE, 1, 1
2896, 380586508,   1,   4,   5,  11,   9,  -1,  -2,   0,   1,   0,  -6, 1306, 0.008, 1143, 158, -227, 348,   8, -57, -68,   0, 355, 3459, 1313, 1279, 1325, 1307, 0, SMALL_ANGLE, IDLE, 1, 1
2912, 380602444,   2,   5,  -5,  11,   9,  -2,   1,   2,   1,   0,  -5, 1305, 0.008, 1143, 158, -227, 350,  -4, -64,  -5, 201,  97, 3622, 1300, 1282, 1342, 1296, 0, SMALL_ANGLE, IDLE, 1, 1
2928, 380618386,   3,   1,   1,  11,  10,  -2,   1,  -5,   1,   0,  -5, 1305, 0.000, 1143, 158, -227, 354, -26, -22, -41,  58, 139, 2879, 1295, 1285, 1327, 1313, 0, SMALL_ANGLE, IDLE, 1, 1
2944, 380634312,   5,   1, -10,  12,  10,  -2,  -3,   0,   1,   0,  -5, 1305, 0.000, 1148, 176, -232, 354, -40, -19,  29, -107, 213, 3677, 1290, 1292, 1342, 1296, 0, SMALL_ANGLE, IDLE, 1, 1
2960, 380650233,   7,   0,  -8,  12,  10,  -2,   2,   0,   1,   0,  -6, 1305, 0.000, 1148, 176, -232, 357, -64,  -6,   9, -43,  89, 4000, 1284, 1284, 1346, 1306, 0, SMALL_ANGLE, IDLE, 1, 1
2976, 380666181,   4,   2,  -3,  13,  10,  -2,   1,   0,   0,   1,  -7, 1306, 0.000, 1148, 176, -232, 357, -60,  -4, -30,  72, 169, 3458, 1295, 1281, 1341, 1307, 0, SMALL_ANGLE, IDLE, 1, 1
2992, 380682116,   4,   0, -18,  13,  10,  -2,  -2,  -5,   0,   1,  -8, 1307, 0.000, 1148, 176, -232, 362, -59,  25,  58, -251, 446, 3691, 1277, 1307, 1347, 1297, 0, SMALL_ANGLE, IDLE, 1, 1
3008, 380698034,   5,  -1,   0,  14,  10,  -3,   3,   2,   0,   1,  -8, 1307, 0.000, 1148, 176, -232, 365, -65,  37, -51, 388, 110, 3438, 1293, 1277, 1343, 1315, 0, SMALL_ANGLE, IDLE, 1, 1
3024, 380713971,   4,  -3,  -2,  14,  10,  -2,   0,  -1,   0,   2,  -8, 1307, 0.000, 1148, 176, -232, 365, -57,  79, -36, 123, 240, 3486, 1291, 1287, 1335, 1315, 0, SMALL_ANGLE, IDLE, 1, 1
3040, 380729924,  -3,   0,   9,  14,  10,  -2,  -3,  -5,  -1,   5,  -9, 1308, 0.000, 1148, 176, -232, 367,  -2, 117, -114, -37, 339, 3671, 1312, 1288, 1314, 1318, 0, SMALL_ANGLE, IDLE, 1, 1
3056, 380745862,  -6,   4,   9,  14,  10,  -2,   1,   0,  -2,   7,  -9, 1308, 0.000, 1144, 148, -231, 367,  23, 115, -115, 194,  52, 3661, 1320, 1278, 1324, 1310, 0, SMALL_ANGLE, IDLE, 1, 1
3072, 380761821,  -5,   8,  -6,  13,  10,  -3,   3,  -3,  -2,  11,  -9, 1308, 0.000, 1144, 148, -231, 368,  -2, 161, -23,  26, 273, 3522, 1303, 1291, 1343, 1295, 0, SMALL_ANGLE, IDLE, 1, 1
3088, 380777751,  -3,   4,  -2,  13,  11,  -3,   0,  -5,  -2,  11,  -9, 1308, 0.000, 1144, 148, -231, 372, -20, 213, -51, 197, 165, 3709, 1303, 1293, 1333, 1303, 0, SMALL_ANGLE, IDLE, 1, 1
3104, 380793683,  -1,   3,   1,  13,  11,  -3,   1,   0,  -3,  13,  -7, 1307, 0.000, 1144, 148, -231, 372, -70, 275, -55, 301, -16, 3745, 1306, 1282, 1336, 1304, 0, SMALL_ANGLE, IDLE, 1, 1
3120, 380809609,  -1,   2,  12,  12,  11,  -3,   3,  -4,  -5,  16,  -6, 1307, 0.000, 1144, 148, -231, 374, -123, 359, -114, -204, 129, 3806, 1311, 1275, 1321, 1321, 0, SMALL_ANGLE, IDLE, 1, 1
3136, 380825525,  -7,   1,  -7,  12,  11,  -1,  -1,  -8,  -8,  19,  -5, 1307, 0.044, 1144, 148, -231, 376, -123, 444,   9, -114, 201, 3547, 1299, 1307, 1323, 1299, 0, SMALL_ANGLE, IDLE, 1, 1
3152, 380841477,  -7,  -2,  -3,  12,  11,  -2,  -1,  -2, -10,  21,  -5, 1307, 0.044, 1150, 169, -228, 376, -165, 525, -18, 252,  -7, 3220, 1305, 1301, 1323, 1299, 0, SMALL_ANGLE, IDLE, 1, 1
3168, 380857418,  -6, -14,   0,  11,  10,  -2,   0,  -8, -10,  21,  -5, 1307, 0.000, 1150, 169, -228, 377, -174, 673, -34, 246, 258, 3455, 1288, 1316, 1302, 1322, 0, SMALL_ANGLE, IDLE, 1, 1
3184, 380873368,  -5, -19,   9,  11,   9,  -2,   0,  -7, -11,  23,  -5, 1306, 0.000, 1150, 169, -228, 377, -213, 783, -93, -20,  53, 3514, 1290, 1310, 1288, 1336, 0, SMALL_ANGLE, IDLE, 1, 1
3200, 380889317,  -3, -25,   1,  10,   7,  -1,   2,   0, -11,  23,  -4, 1306, 0.000, 1150, 169, -228, 381, -236, 852, -38, 230,  30, 3944, 1279, 1315, 1297, 1333, 0, SMALL_ANGLE, IDLE, 1, 1
3216, 380905261,   0, -27,   8,  10,   4,  -1,   0,  -3, -11,  22,  -5, 1307, 0.017, 1150, 169, -228, 383, -276, 863, -87, 740,   0, 3945, 1278, 1316, 1284, 1350, 0, SMALL_ANGLE, IDLE, 1, 1
3232, 380921188,   2, -21, -16,  11,   2,  -1,  -1,   2, -11,  22,  -5, 1307, 0.017, 1150, 169, -228, 383, -303, 785,  64, 139,  36, 3405, 1261, 1329, 1319, 1319, 0, SMALL_ANGLE, IDLE, 1, 1
3248, 380937149,  -3, -19,  -8,  11,   0,  -2,  -4,   5, -11,  19,  -5, 1307, 0.017, 1110, 151, -222, 385, -241, 687,  19, -125, -22, 3920, 1279, 1327, 1307, 1315, 0, SMALL_ANGLE, IDLE, 1, 1
3264, 380953094,   0, -11,  -6,  11,  -2,  -2,  -1,   7, -10,  18,  -7, 1307, 0.000, 1110, 151, -222, 386, -244, 569, -15, 153, -208, 4100, 1283, 1311, 1319, 1315, 0, SMALL_ANGLE, IDLE, 1, 1
3280, 380969045,   0,  -9,  -8,  10,  -2,  -2,   2,   0, -10,  16,  -7, 1307, 0.000, 1110, 151, -222, 386, -248, 492,  -2, 222, -149, 4184, 1274, 1316, 1318, 1320, 0, SMALL_ANGLE, IDLE, 1, 1
3296, 380984974,   1,  -4,   1,  11,  -3,  -3,   0,   4, -10,  14,  -7, 1307, 0.000, 1110, 151, -222, 390, -261, 385, -54, 274, 192, 4025, 1290, 1300, 1318, 1320, 0, SMALL_ANGLE, IDLE, 1, 1
3312, 381000904,  -1,   0, -16,  11,  -3,  -3,  -6,   3, -10,  14,  -7, 1307, 0.000, 1110, 151, -222, 390, -243, 328,  52, 698, -204, 4117, 1284, 1322, 1330, 1292, 0, SMALL_ANGLE, IDLE, 1, 1
3328, 381016850,   1,  -7,  18,  11,  -4,  -3,  -5,  -2,  -9,  10,  -8, 1307, 0.000, 1110, 151, -222, 392, -243, 324, -162, 638, -151, 3928, 1302, 1298, 1286, 1342, 0, SMALL_ANGLE, IDLE, 1, 1
3344, 381032791,   2, -17,   0,  11,  -5,  -2,   3,  -1,  -9,   6,  -8, 1307, 0.000, 1110, 151, -222, 393, -259, 340, -51, 1164, -241, 3743, 1266, 1316, 1302, 1344, 0, SMALL_ANGLE, IDLE, 1, 1
3360, 381048753,   9, -19,  -4,  11,  -6,  -2,  -2,   2,  -6,   4,  -8, 1307, 0.000, 1079, 137, -222, 393, -269, 323, -27, -18, 195, 4038, 1260, 1318, 1308, 1342, 0, SMALL_ANGLE, IDLE, 1, 1
3376, 381064716,   8, -12,  -8,  12,  -8,  -2,  -1,   9,  -6,   4,  -8, 1307, 0.000, 1079, 137, -222, 394, -248, 240,  -3, -43, -32, 4019, 1267, 1309, 1325, 1327, 0, SMALL_ANGLE, IDLE, 1, 1
3392, 381080641,   8,  -7,  -4,  13,  -9,  -3,   1,   3,  -3,   3,  -8, 1308, 0.000, 1079, 137, -222, 394, -186, 158, -31, 321,  35, 3935, 1266, 1306, 1324, 1336, 0, SMALL_ANGLE, IDLE, 1, 1
3408, 381096597,   9,   1,  -4,  14,  -9,  -3,  -5,   2,   0,   3,  -7, 1308, 0.000, 1079, 137, -222, 394, -119,  51, -23, 684, 110, 3856, 1277, 1303, 1327, 1325, 0, SMALL_ANGLE, IDLE, 1, 1
3424, 381112547,   8,   8,   0,  15,  -9,  -3,  -3,   0,   2,   3,  -6, 1308, 0.000, 1079, 137, -222, 398, -60, -31, -42, -98, -246, 3986, 1284, 1292, 1330, 1326, 0, SMALL_ANGLE, IDLE, 1, 1
3440, 381128496,   0,  15,   6,  15,  -7,  -3,  -5,   3,   2,   3,  -5, 1308, 0.000, 1079, 137, -222, 398,  37, -122, -74, -215, 330, 3533, 1312, 1284, 1326, 1310, 0, SMALL_ANGLE, IDLE, 1, 1
3456, 381144432,  -4,  17,   0,  15,  -6,  -2,  -7,   3,   2,   3,  -5, 1308, 0.000, 1065, 102, -212, 400,  96, -138, -32, 472, 114, 3828, 1316, 1292, 1328, 1296, 0, SMALL_ANGLE, IDLE, 1, 1
3472, 381160359, -14,  10,  -5,  14,  -5,  -2,  -5,  -5,   2,   3,  -5, 1310, 0.000, 1065, 102, -212, 401, 211, -60,  -7, 490, 161, 3774, 1308, 1322, 1312, 1298, 0, SMALL_ANGLE, IDLE, 1, 1
3488, 381176293, -17,   8,   9,  13,  -4,  -2,   1,  -2,   2,   5,  -5, 1313, 0.000, 1065, 102, -212, 401, 251,  19, -94, 875, 362, 3037, 1325, 1307, 1305, 1315, 0, SMALL_ANGLE, IDLE, 1, 1
3504, 381192264, -18,   8,  -5,  11,  -3,  -2,   0,  -5,   2,   8,  -6, 1319, 0.000, 1065, 102, -212, 402, 258,  92, -11, 166, 242, 3915, 1319, 1333, 1319, 1305, 0, SMALL_ANGLE, IDLE, 1, 1
3520, 381208200, -13,   1,  -4,  10,  -3,  -2,   2,   0,   2,   8,  -6, 1319, 0.000, 1065, 102, -212, 402, 201, 168, -13, 438, 461, 4184, 1312, 1328, 1322, 1314, 0, SMALL_ANGLE, IDLE, 1, 1
3536, 381224147,  -5,   2,   2,   9,  -2,  -2,   4,  -7,   2,  12,  -6, 1328, 0.000, 1065, 102, -212, 402, 103, 253, -54,  -5, -117, 3960, 1313, 1327, 1329, 1343, 0, SMALL_ANGLE, IDLE, 1, 1
3552, 381240050,   2,   7,   5,   9,  -2,  -2,   2,  -2,   2,  17,  -7, 1332, 0.000, 1067, 145, -216, 402,  16, 323, -80, 197, 135, 4205, 1325, 1313, 1345, 1345, 0, SMALL_ANGLE, IDLE, 1, 1
3568, 381255994,   8,  14,  -4,   9,  -1,  -2,   5,  -4,   0,  24,  -7, 1334, 0.000, 1067, 145, -216, 402, -102, 410, -26, 225, 320, 3963, 1315, 1309, 1371, 1341, 0, SMALL_ANGLE, IDLE, 1, 1
3584, 381271954,  12,  16,  -4,  11,   0,  -3,   2,  -3,  -1,  28,  -7, 1334, 0.000, 1067, 145, -216, 406, -182, 479, -21, -54,  -6, 4202, 1315, 1303, 1379, 1339, 0, SMALL_ANGLE, IDLE, 1, 1
3600, 381287896,  14,   4,  -3,  12,   1,  -3,  -1,  -6,  -1,  28,  -7, 1334, 0.000, 1067, 145, -216, 408, -210, 624, -29, 117, -26, 4617, 1302, 1316, 1364, 1354, 0, SMALL_ANGLE, IDLE, 1, 1
3616, 381303844,   4,  -1,  -2,  13,   1,  -2,  -3,  -5,  -2,  31,  -7, 1334, 0.000, 1067, 145, -216, 408, -110, 762, -36, 438, 247, 4481, 1311, 1329, 1347, 1349, 0, SMALL_ANGLE, IDLE, 1, 1
3632, 381319793,  -4,  -8,  -6,  13,   1,  -2,  -4,  -5,  -2,  33,  -7, 1334, 0.008, 1067, 145, -216, 410, -10, 898, -10, 149,  -6, 4028, 1309, 1349, 1335, 1343, 0, SMALL_ANGLE, IDLE, 1, 1
3648, 381335726, -10, -14, -10,  12,   0,  -3,  -3,  -5,  -2,  35,  -7, 1334, 0.008, 1067, 145, -216, 411,  68, 1008,  12, 329,  42, 4312, 1303, 1367, 1327, 1339, 0, SMALL_ANGLE, IDLE, 1, 1
3664, 381351662, -12, -14,   0,  11,  -2,  -2,   0,   2,  -2,  35,  -7, 1334, 0.000, 1071, 135, -197, 411,  94, 1009, -46, 307, 261, 3797, 1319, 1351, 1321, 1345, 0, SMALL_ANGLE, IDLE, 1, 1
3680, 381367598,  -8, -12, -10,  10,  -3,  -2,   5,   4,  -2,  34,  -7, 1334, 0.000, 1071, 135, -197, 411,  46, 962,  12, -146, -51, 4555, 1304, 1350, 1342, 1340, 0, SMALL_ANGLE, IDLE, 1, 1
3696, 381383537,  -3, -10,   5,   9,  -4,  -2,   4,   3,  -2,  32,  -7, 1334, 0.000, 1071, 135, -197, 411, -25, 891, -77, -412, -170, 4234, 1316, 1332, 1330, 1358, 0, SMALL_ANGLE, IDLE, 1, 1
3712, 381399519,   1, -11,  -8,   9,  -5,  -2,   2,   0,  -2,  30,  -7, 1334, 0.000, 1071, 135, -197, 411, -78, 859,  -1,  11, 230, 4234, 1296, 1348, 1340, 1352, 0, SMALL_ANGLE, IDLE, 1, 1
3728, 381415465,   5,  -8,  19,   9,  -6,  -2,   3,   4,  -2,  28,  -7, 1334, 0.000, 1071, 135, -197, 411, -122, 771, -164,   5, 226, 4444, 1324, 1310, 1324, 1378, 0, SMALL_ANGLE, IDLE, 1, 1
3744, 381431408,  13,   4, -10,  10,  -6,  -2,   4,   7,  -2,  28,  -7, 1334, 0.000, 1071, 135, -197, 411, -222, 618,  13,  -5, 624, 4137, 1300, 1314, 1378, 1344, 0, SMALL_ANGLE, IDLE, 1, 1
3760, 381447339,  16,   8,   6,  12,  -5,  -2,   0,   3,  -2,  25,  -7, 1334, 0.000, 977, 108, -197, 408, -252, 501, -84, 576, 368, 4390, 1316, 1296, 1364, 1360, 0, SMALL_ANGLE, IDLE, 1, 1
3776, 381463290,  15,   6,  -6,  13,  -5,  -2,  -3,   2,  -2,  21,  -6, 1334, 0.000, 977, 108, -197, 406, -243, 426,  -6, -200, -291, 4400, 1304, 1314, 1370, 1348, 0, SMALL_ANGLE, IDLE, 1, 1
3792, 381479216,   4,   4,  -7,  14,  -4,  -2,  -8,   1,  -2,  18,  -6, 1334, 0.000, 977, 108, -197, 406, -115, 386,   5, 243, 160, 4581, 1316, 1332, 1354, 1334, 0, SMALL_ANGLE, IDLE, 1, 1
3808, 381495149,  -5,  -5,  -6,  14,  -4,  -2,  -3,  -1,  -2,  14,  -6, 1334, 0.000, 977, 108, -197, 405,  10, 393,  -7, 176,  11, 4146, 1310, 1346, 1338, 1342, 0, SMALL_ANGLE, IDLE, 1, 1
3824, 381511075, -11,  -2,   9,  13,  -4,  -2,  -5,   2,  -2,  14,  -6, 1334, 0.000, 977, 108, -197, 405,  82, 363, -96, 167, -75, 4198, 1340, 1334, 1320, 1342, 0, SMALL_ANGLE, IDLE, 1, 1
3840, 381527011, -20,  -6, -13,  12,  -5,  -3,  -2,  -2,  -5,  11,  -8, 1334, 0.008, 977, 108, -197, 404, 110, 329,  30, 423, -232, 3869, 1315, 1373, 1327, 1321, 0, SMALL_ANGLE, IDLE, 1, 1
3856, 381542929, -29,  -9,  -7,  10,  -5,  -4,   2,   3, -10,   6, -12, 1334, 0.008, 972, 133, -188, 404, 102, 244, -34,  39, 175, 4143, 1329, 1373, 1317, 1317, 0, SMALL_ANGLE, IDLE, 1, 1
3872, 381558868, -29,  -6, -26,   7,  -6,  -5,   7,   2, -15,   5, -15, 1334, 0.000, 972, 133, -188, 404, -19, 189,  66,  76, 360, 3412, 1308, 1390, 1340, 1298, 0, SMALL_ANGLE, IDLE, 1, 1
3888, 381574781, -14,  -1,  -5,   5,  -6,  -6,   9,   2, -15,   5, -15, 1334, 0.000, 972, 133, -188, 400, -204, 131, -67, 185, 704, 4067, 1318, 1350, 1340, 1328, 0, SMALL_ANGLE, IDLE, 1, 1
3904, 381590723,  -3,  -1,  -6,   4,  -6,  -7,  10,   0, -18,   4, -21, 1334, 0.000, 972, 133, -188, 400, -406, 108, -89, 404, -184, 3977, 1303, 1343, 1351, 1339, 0, SMALL_ANGLE, IDLE, 1, 1
3920, 381606676,   7,  -1, -24,   4,  -6,  -8,   8,   2, -20,   3, -27, 1334, 0.000, 972, 133, -188, 398, -579,  76, -21, -139, -56, 4543, 1278, 1352, 1380, 1326, 0, SMALL_ANGLE, IDLE, 1, 1
3936, 381622619,  10,  -4, -19,   5,  -7,  -9,   4,   2, -24,   2, -34, 1333, 0.000, 972, 133, -188, 397, -712,  95, -88,  85, -78, 4865, 1277, 1351, 1371, 1333, 0, SMALL_ANGLE, IDLE, 1, 1
3952, 381638554,   7,  -5, -16,   6,  -7, -10,   0,  -5, -29,   2, -41, 1333, 0.000, 972, 133, -188, 397, -792, 108, -150, 244, 151, 4398, 1277, 1363, 1355, 1337, 0, SMALL_ANGLE, IDLE, 1, 1
3968, 381654519,   6,  -4,  -6,   7,  -8, -11,  -4,   0, -29,   2, -41, 1333, 0.026, 946,  91, -172, 396, -790,  98, -211, 256, 300, 4452, 1295, 1353, 1347, 1337, 0, SMALL_ANGLE, IDLE, 1, 1
3984, 381670454,  -5,  -6, -10,   7,  -8, -13,  -1,  -2, -34,   1, -51, 1333, 0.026, 946,  91, -172, 396, -771,  98, -243, 103, -162, 4725, 1293, 1371, 1341, 1327, 0, SMALL_ANGLE, IDLE, 1, 1
4000, 381686402,  -8,  -3, -18,   6,  -8, -14,   2,   0, -35,   1, -65, 1333, 0.000, 946,  91, -172, 396, -766,  52, -283,  91, -279, 4345, 1290, 1376, 1354, 1312, 0, SMALL_ANGLE, IDLE, 1, 1
4016, 381702328,  -4,   1, -25,   6,  -8, -15,  -1,   3, -34,   1, -76, 1333, 0.000, 946,  91, -172, 396, -791,   3, -301, 273, -35, 4042, 1288, 1376, 1370, 1298, 0, SMALL_ANGLE, IDLE, 1, 1
4032, 381718249,  -1,   5, -18,   6,  -8, -16,  -1,   2, -34,   1, -76, 1333, 0.000, 946,  91, -172, 396, -820, -47, -340, -42, -177, 4565, 1294, 1364, 1370, 1304, 0, SMALL_ANGLE, IDLE, 1, 1
4048, 381734215,  14,   8, -34,   7,  -8, -18,   1,   1, -28,   1, -84, 1333, 0.000, 946,  91, -172, 396, -855, -83, -295, -72, -213, 4492, 1260, 1362, 1408, 1302, 0, SMALL_ANGLE, IDLE, 1, 1
4064, 381750148,  22,   8,  -8,   8,  -7, -19,  -2,  -3, -23,   1, -87, 1333, 0.000, 962,  73, -158, 396, -838, -83, -468,  39, -37, 4522, 1276, 1334, 1386, 1336, 0, SMALL_ANGLE, IDLE, 1, 1
4080, 381766089,  23,   7,  -6,  11,  -6, -19,  -7,  -2, -19,   1, -90, 1333, 0.000, 962,  73, -158, 396, -753, -72, -497, 169, -645, 4817, 1280, 1332, 1384, 1336, 0, SMALL_ANGLE, IDLE, 1, 1
4096, 381782035,   7,   7, -24,  12,  -5, -20, -10,  -1, -19,   1, -92, 1333, 0.000, 962,  73, -158, 396, -557, -66, -407, 170, -2038, 4545, 1281, 1367, 1387, 1297, 0, SMALL_ANGLE, IDLE, 1, 1
4112, 381797984,  -8,   4,   2,  12,  -5, -20,  -6,  -4, -19,   1, -92, 1333, 0.000, 962,  73, -158, 392, -379, -34, -560, 108, -1345, 4227, 1312, 1358, 1344, 1318, 0, SMALL_ANGLE, IDLE, 1, 1
4128, 381813934, -18,   4,   8,  11,  -4, -20,  -2,   0, -19,   1, -93, 1333, 0.000, 962,  73, -158, 392, -253, -34, -600, 597, -1472, 4003, 1330, 1354, 1336, 1312, 0, SMALL_ANGLE, IDLE, 1, 1
4144, 381829862, -17,   2,   6,   9,  -4, -19,  -5,   2, -16,   0, -93, 1334, 0.000, 962,  73, -158, 390, -195, -36, -589,  90, -699, 4134, 1334, 1360, 1334, 1308, 0, SMALL_ANGLE, IDLE, 1, 1
4160, 381845806,  -9,   0,   0,   8,  -4, -19,   1,  -1, -13,   0, -93, 1334, 0.000, 984,  19, -126, 390, -216, -11, -552, 135, -325, 4349, 1310, 1358, 1348, 1320, 0, SMALL_ANGLE, IDLE, 1, 1
4176, 381861734,  -2,   0,  13,   7,  -4, -18,   3,  -2, -13,   0, -93, 1334, 0.000, 984,  19, -126, 389, -298,   1, -631, 208, 151, 4396, 1315, 1337, 1341, 1343, 0, SMALL_ANGLE, IDLE, 1, 1
4192, 381877664,   8,   0,  17,   8,  -4, -18,   0,   2, -11,   0, -93, 1334, 0.000, 984,  19, -126, 388, -368, -12, -657,  45,  79, 4264, 1315, 1321, 1349, 1351, 0, SMALL_ANGLE, IDLE, 1, 1
4208, 381893601,   9,   2,   6,   9,  -4, -17,   2,   0, -11,   0, -93, 1333, 0.000, 984,  19, -126, 388, -384, -34, -591, 101, 345, 4296, 1300, 1326, 1362, 1344, 0, SMALL_ANGLE, IDLE, 1, 1
4224, 381909575,   7,   7,  25,   9,  -3, -16,  -2,   4, -11,   0, -94, 1332, 0.000, 984,  19, -126, 388, -364, -93, -713, 156, -10, 4221, 1335, 1301, 1345, 1347, 0, SMALL_ANGLE, IDLE, 1, 1
4240, 381925510,   1,  10,   5,  10,  -3, -16,   0,   1, -12,   0, -94, 1332, 0.000, 984,  19, -126, 384, -309, -134, -590, -258, -265, 5134, 1318, 1324, 1362, 1324, 0, SMALL_ANGLE, IDLE, 1, 1
4256, 381941443,  -4,   9,  15,  10,  -2, -15,   0,   0, -12,   0, -94, 1332, 0.000, 984,  19, -126, 384, -246, -115, -654, -191,  16, 4462, 1333, 1319, 1345, 1331, 0, SMALL_ANGLE, IDLE, 1, 1
4272, 381957385,  -6,  10,   9,   9,  -1, -14,   3,   3, -12,   0, -93, 1332, 0.000, 977,  -6, -123, 382, -231, -135, -607, 112, 105, 4240, 1333, 1319, 1355, 1321, 0, SMALL_ANGLE, IDLE, 1, 1
4288, 381973308,  -2,   9,  13,   9,   0, -13,   2,  -3, -12,   0, -92, 1332, 0.000, 977,  -6, -123, 382, -271, -118, -627, -120, -288, 4110, 1329, 1317, 1347, 1335, 0, SMALL_ANGLE, IDLE, 1, 1
4304, 381989242,  -1,   6,  15,   8,   1, -13,   0,  -4, -11,   0, -90, 1332, 0.000, 977,  -6, -123, 377, -258, -85, -624, 197, -169, 4397, 1330, 1320, 1340, 1338, 0, SMALL_ANGLE, IDLE, 1, 1
4320, 382005169,  -3,   3,  10,   8,   1, -12,   0,   0, -11,   0, -90, 1332, 0.000, 977,  -6, -123, 374, -241, -49, -597, -117, 110, 4231, 1329, 1325, 1343, 1331, 0, SMALL_ANGLE, IDLE, 1, 1
4336, 382021111,  -1,   1,  15,   8,   2, -11,  -1,  -3, -11,   0, -90, 1333, 0.000, 977,  -6, -123, 374, -266, -19, -625, 109, -179, 4007, 1331, 1323, 1335, 1343, 0, SMALL_ANGLE, IDLE, 1, 1
4352, 382037034,  -2,  -2,  21,   8,   2, -10,  -4,  -3, -11,   0, -90, 1333, 0.000, 977,  -6, -123, 369, -250,  26, -662,  39, -188, 4576, 1339, 1323, 1321, 1349, 0, SMALL_ANGLE, IDLE, 1, 1
4368, 382052998,   0,  -2,   7,   8,   1, -10,   0,   1, -10,   0, -90, 1334, 0.000, 1026, -24, -105, 366, -249,  26, -582, 300, 132, 4716, 1323, 1329, 1345, 1339, 0, SMALL_ANGLE, IDLE, 1, 1
4384, 382068952,   3,  -3,  11,   8,   1,  -9,   2,  -3,  -9,   0, -89, 1334, 0.000, 1026, -24, -105, 366, -265,  34, -598, 377, -87, 4000, 1318, 1324, 1340, 1354, 0, SMALL_ANGLE, IDLE, 1, 1
4400, 382084880,   4,  -1,  26,   8,   1,  -8,   0,   2,  -9,   0, -89, 1334, 0.000, 1026, -24, -105, 361, -281,  12, -685, 421,  96, 4164, 1342, 1302, 1330, 1362, 0, SMALL_ANGLE, IDLE, 1, 1
4416, 382100808,   4,   1,  10,   9,   1,  -7,   0,   2,  -9,   0, -89, 1334, 0.000, 1026, -24, -105, 361, -282, -22, -590, 136, -204, 3871, 1328, 1314, 1348, 1346, 0, SMALL_ANGLE, IDLE, 1, 1
4432, 382116749,  -1,   4,   3,   9,   1,  -7,  -8,   0,  -9,   0, -89, 1334, 0.000, 1026, -24, -105, 358, -219, -57, -544, 328, -26, 4043, 1335, 1333, 1343, 1325, 0, SMALL_ANGLE, IDLE, 1, 1
4448, 382132696,  -4,   5,  21,   9,   2,  -6,  -3,  -1,  -9,   0, -88, 1334, 0.000, 1026, -24, -105, 352, -183, -65, -653, 177,  62, 4116, 1353, 1311, 1327, 1345, 0, SMALL_ANGLE, IDLE, 1, 1
4464, 382148641,  -7,   6,   5,   8,   2,  -5,   2,   1,  -9,   0, -88, 1334, 0.000, 1061, -40, -93, 352, -146, -78, -554, -87, -43, 4313, 1340, 1322, 1346, 1328, 0, SMALL_ANGLE, IDLE, 1, 1
4480, 382164603, -11,   3,  17,   7,   3,  -4,  -3,  -3,  -9,   0, -87, 1333, 0.000, 1061, -40, -93, 346, -96, -49, -618, 328, 157, 3859, 1356, 1324, 1316, 1336, 0, SMALL_ANGLE, IDLE, 1, 1
4496, 382180510,  -6,   0,  30,   7,   3,  -3,  -3,  -1,  -7,   0, -84, 1334, 0.000, 1061, -40, -93, 346, -110, -11, -683, 469, -17, 3739, 1365, 1307, 1307, 1357, 0, SMALL_ANGLE, IDLE, 1, 1
4512, 382196432,  -4,  -1,   7,   6,   3,  -2,   0,  -3,  -6,   0, -82, 1333, 0.000, 1061, -40, -93, 342, -104,  13, -528, -71,  89, 4111, 1335, 1327, 1329, 1341, 0, SMALL_ANGLE, IDLE, 1, 1
4528, 382212355,  -3,  -2,  19,   6,   3,  -1,   1,  -1,  -6,   0, -82, 1333, 0.000, 1061, -40, -93, 340, -123,  17, -602, -508, 320, 4366, 1347, 1311, 1319, 1355, 0, SMALL_ANGLE, IDLE, 1, 1
4544, 382228312,  -1,   0,   5,   6,   3,   0,  -5,   2,  -6,   0, -82, 1334, 0.026, 1061, -40, -93, 340, -140,  -6, -518, 101, -102, 4058, 1344, 1324, 1334, 1334, 0, SMALL_ANGLE, IDLE, 1, 1
4560, 382244245,   0,   0,   2,   6,   3,   0,  -2,  -1,  -5,   0, -82, 1334, 0.026, 1061, -40, -93, 335, -130,  -6, -503,  63, 267, 4139, 1334, 1326, 1338, 1338, 0, SMALL_ANGLE, IDLE, 1, 1
4576, 382260190,   3,  -1,   9,   6,   3,   1,   3,   0,  -5,   0, -83, 1334, 0.000, 1095, -69, -84, 329, -172,   9, -550, 102, -166, 4219, 1334, 1310, 1338, 1354, 0, SMALL_ANGLE, IDLE, 1, 1
4592, 382276138,   1,  -2,  29,   6,   3,   2,  -3,  -2,  -5,   0, -83, 1334, 0.000, 1095, -69, -84, 329, -146,  22, -666, -149, -74, 4526, 1360, 1300, 1306, 1370, 0, SMALL_ANGLE, IDLE, 1, 1
4608, 382292087,   0,   0,  19,   6,   2,   3,   1,   2,  -5,   0, -83, 1334, 0.000, 1095, -69, -84, 322, -139,   0, -604, -146,  14, 4337, 1353, 1301, 1323, 1359, 0, SMALL_ANGLE, IDLE, 1, 1
4624, 382308024,   2,   0,   7,   7,   2,   4,  -1,  -1,  -4,   0, -84, 1334, 0.000, 1095, -69, -84, 322, -138,  -5, -542, -184, -128, 4282, 1338, 1314, 1332, 1352, 0, SMALL_ANGLE, IDLE, 1, 1
4640, 382323944,   1,   1,  21,   7,   3,   5,   0,   0,  -5,   0, -83, 1334, 0.000, 1095, -69, -84, 318, -150, -24, -617, 164, 134, 4106, 1356, 1296, 1320, 1364, 0, SMALL_ANGLE, IDLE, 1, 1
4656, 382339863,   2,   1,  13,   7,   3,   6,   0,  -2,  -5,   0, -83, 1334, 0.000, 1095, -69, -84, 312, -159, -22, -573, 148,  48, 4050, 1346, 1304, 1326, 1360, 0, SMALL_ANGLE, IDLE, 1, 1
4672, 382355794,   0,   0,   5,   7,   3,   7,  -2,  -2,  -5,   0, -83, 1334, 0.000, 1110, -72, -82, 312, -139,  -7, -524, -126,   4, 3967, 1342, 1316, 1328, 1350, 0, SMALL_ANGLE, IDLE, 1, 1
4688, 382371727,  -3,  -1,  10,   7,   3,   8,  -5,   1,  -5,   0, -82, 1334, 0.000, 1110, -72, -82, 308, -99,  14, -551, -182,  77, 4092, 1356, 1314, 1318, 1348, 0, SMALL_ANGLE, IDLE, 1, 1
4704, 382387642,  -6,   0,   5,   7,   3,   9,  -3,  -1,  -4,   0, -81, 1334, 0.035, 1110, -72, -82, 302, -32,  -7, -513, 101, 296, 4264, 1352, 1320, 1320, 1344, 0, SMALL_ANGLE, IDLE, 1, 1
4720, 382403547,  -7,   3,  23,   6,   3,   9,   0,   0,  -4,   0, -80, 1334, 0.035, 1110, -72, -82, 302, -27, -41, -617, 107,  39, 3980, 1373, 1297, 1307, 1359, 0, SMALL_ANGLE, IDLE, 1, 1
4736, 382419497,  -2,   8,  17,   6,   3,  10,   0,   3,  -2,   0, -75, 1334, 0.035, 1110, -72, -82, 296, -28, -105, -553, -78, 170, 4311, 1371, 1289, 1325, 1351, 0, SMALL_ANGLE, IDLE, 1, 1
4752, 382435456,  -3,  12,   8,   5,   4,  11,  -2,   0,  -2,   0, -75, 1334, 0.000, 1110, -72, -82, 296, -26, -157, -499, 387, -137, 4229, 1369, 1299, 1331, 1337, 0, SMALL_ANGLE, IDLE, 1, 1
4768, 382451402,   4,  12,  20,   6,   5,  13,   4,   0,   0,   0, -69, 1334, 0.000, 1143, -57, -73, 292, -56, -148, -532, 457, 207, 4211, 1370, 1270, 1332, 1364, 0, SMALL_ANGLE, IDLE, 1, 1
4784, 382467368,   3,   8,  22,   6,   6,  14,   2,  -5,   0,   0, -64, 1334, 0.000, 1143, -57, -73, 286, -41, -104, -512,  35, -126, 4099, 1368, 1278, 1318, 1372, 0, SMALL_ANGLE, IDLE, 1, 1
4800, 382483316,   6,   4,  25,   6,   7,  15,   2,   0,   1,   0, -62, 1334, 0.000, 1143, -57, -73, 286, -62, -57, -527, -226, 227, 4234, 1371, 1269, 1319, 1377, 0, SMALL_ANGLE, IDLE, 1, 1
4816, 382499251,   1,  -1,  21,   7,   7,  16,  -5,  -3,   1,   0, -62, 1334, 0.000, 1143, -57, -73, 282,  -2,   4, -502,  73,  73, 4343, 1371, 1291, 1303, 1371, 0, SMALL_ANGLE, IDLE, 1, 1
4832, 382515189,  -3,  -4,  22,   7,   7,  17,  -2,   0,   1,   0, -61, 1334, 0.000, 1143, -57, -73, 277,  53,  47, -499, 892, -99, 4417, 1374, 1290, 1300, 1372, 0, SMALL_ANGLE, IDLE, 1, 1
4848, 382531102,  -8,  -7,   3,   6,   6,  18,  -4,  -2,   2,   0, -61, 1334, 0.000, 1143, -57, -73, 277, 140,  76, -387,  25, 270, 4470, 1358, 1322, 1304, 1352, 0, SMALL_ANGLE, IDLE, 1, 1
4864, 382547028,  -1,  -4,  -2,   6,   6,  18,  -3,   1,   6,   0, -57, 1334, 0.000, 1143, -57, -73, 271, 149,  42, -330,   1, -152, 4465, 1351, 1313, 1323, 1349, 0, SMALL_ANGLE, IDLE, 1, 1
4880, 382562983,   7,   0,  39,   6,   6,  19,   0,   1,  10,   0, -48, 1334, 0.000, 1158, -52, -70, 271, 148, -14, -520, 279, -280, 4100, 1386, 1256, 1296, 1398, 0, SMALL_ANGLE, IDLE, 1, 1
4896, 382578935,   7,   7,  17,   6,   6,  21,  -5,   2,  10,   0, -48, 1334, 0.000, 1158, -52, -70, 267, 153, -90, -392, 395, -267, 4309, 1379, 1273, 1319, 1365, 0, SMALL_ANGLE, IDLE, 1, 1
4912, 382594903,  12,  11,  12,   8,   7,  22,   2,   4,  13,   0, -40, 1334, 0.008, 1158, -52, -70, 261, 166, -146, -315, 206, -316, 4200, 1368, 1256, 1344, 1368, 0, SMALL_ANGLE, IDLE, 1, 1
4928, 382610837,   8,  14,  24,   9,   8,  23,  -3,  -1,  14,   0, -31, 1334, 0.008, 1158, -52, -70, 261, 235, -175, -332, 462, -258, 4517, 1388, 1252, 1322, 1374, 0, SMALL_ANGLE, IDLE, 1, 1
4944, 382626807,   2,  13,  19,   9,   9,  24,  -8,  -3,  15,   0, -28, 1334, 0.008, 1158, -52, -70, 257, 333, -168, -288, 399, -536, 4279, 1393, 1269, 1313, 1361, 0, SMALL_ANGLE, IDLE, 1, 1
4960, 382642756,  -7,   7,  13,   9,  10,  25,  -5,  -5,  15,   0, -28, 1334, 0.000, 1158, -52, -70, 252, 438, -94, -249, 1343, -750, 4300, 1387, 1287, 1305, 1357, 0, SMALL_ANGLE, IDLE, 1, 1
4976, 382658716,  -8,   1,  23,   8,  11,  27,  -3,  -4,  17,   0, -24, 1334, 0.000, 1178, -36, -84, 252, 502, -27, -288, 746, -665, 4230, 1395, 1279, 1289, 1373, 0, SMALL_ANGLE, IDLE, 1, 1
4992, 382674645,  -4,  -4,  18,   8,  11,  28,  -6,  -4,  21,   0, -19, 1333, 0.026, 1178, -36, -84, 249, 559,  48, -224, 502, -766, 4829, 1384, 1286, 1288, 1374, 0, SMALL_ANGLE, IDLE, 1, 1
