loopIteration, time (us), axisP[0], axisP[1], axisP[2], axisI[0], axisI[1], axisI[2], axisD[0], axisD[1], axisD[2], rcCommand[0], rcCommand[1], rcCommand[2], rcCommand[3], vbatLatest (V), amperageLatest (A), rssi, gyroADC[0], gyroADC[1], gyroADC[2], accSmooth[0], accSmooth[1], accSmooth[2], debug[0], debug[1], debug[2], debug[3], motor[0], motor[1], motor[2], motor[3], energyCumulative (mAh), flightModeFlags (flags), stateFlags (flags), failsafePhase (flags), rxSignalReceived, rxFlightChannelsValid
  0, 12960666,   1,   1,   6,   0,   0,   0,   3,   0,   0,   3,   0,   0, 1000, 1.090, 34.125, 225,   0,  -1,  -3, -52, 411, 2073,   0,   0,   0,   0, 1203, 1200, 1201, 1206, 0, ANGLE_MODE, SMALL_ANGLE, IDLE, 1, 1
  1, 12961680,   1,   1,   5,   0,   0,   0,   3,   0,   0,   3,   0,   0, 1000, 1.090, 34.125, 225,  -1,  -1,  -2, -51, 411, 2073,   0,   0,   0,   0, 1202, 1200, 1201, 1206, -113, ANGLE_MODE, SMALL_ANGLE, IDLE, 1, 1
  2, 12962700,   1,   1,   5,   0,   0,   0,   3,   0,   0,   3,   0,   0, 1000, 1.090, 34.125, 225,  -1,  -1,  -2, -51, 411, 2074,   0,   0,   0,   0, 1201, 1200, 1200, 1207, -113, ANGLE_MODE, SMALL_ANGLE, IDLE, 1, 1
  3, 12963715,   2,   1,   4,   0,   0,   0,   2,  -1,   0,   3,   0,   0, 1000, 1.090, 34.125, 225,  -1,  -1,  -2, -50, 411, 2073,   0,   0,   0,   0, 1200, 1200, 1200, 1207, -113, ANGLE_MODE, SMALL_ANGLE, IDLE, 1, 1
  4, 12964731,   2,   1,   3,   0,   0,   0,   2,  -2,   0,   3,   0,   0, 1000, 1.090, 34.125, 225,  -1,  -1,  -1, -50, 411, 2073,   0,   0,   0,   0, 1200, 1200, 1200, 1207, -113, ANGLE_MODE, SMALL_ANGLE, IDLE, 1, 1
  5, 12965747,   1,   0,   2,   0,   0,   0,   2,  -3,   0,   3,   0,   0, 1000, 1.090, 34.125, 225,  -1,   0,  -1, -50, 411, 2073,   0,   0,   0,   0, 1200, 1200, 1200, 1206, -113, ANGLE_MODE, SMALL_ANGLE, IDLE, 1, 1
  6, 12966752,   1,   0,   0,   0,   0,   0,   1,  -3,   0,   3,   0,   0, 1000, 1.090, 34.125, 225,  -1,   0,   0, -49, 411, 2073,   0,   0,   0,   0, 1200, 1200, 1200, 1205, -113, ANGLE_MODE, SMALL_ANGLE, IDLE, 1, 1
  7, 12967766,   1,   0,  -2,   0,   0,   0,   0,  -4,   0,   3,   0,   0, 1000, 1.090, 34.125, 225,   0,   0,   1, -49, 411, 2073,   0,   0,   0,   0, 1200, 1204, 1200, 1203, -113, ANGLE_MODE, SMALL_ANGLE, IDLE, 1, 1
  8, 12968780,   1,   0,  -4,   0,   0,   0,  -1,  -5,   0,   3,   0,   0, 1000, 1.090, 34.125, 225,   0,   0,   2, -50, 410, 2073,   0,   0,   0,   0, 1200, 1208, 1200, 1200, -113, ANGLE_MODE, SMALL_ANGLE, IDLE, 1, 1
  9, 12969788,   0,  -1,  -6,   0,   0,   0,  -3,  -5,   0,   3,   0,   0, 1000, 1.090, 34.125, 225,   0,   1,   2, -50, 410, 2074,   0,   0,   0,   0, 1200, 1211, 1200, 1200, -113, ANGLE_MODE, SMALL_ANGLE, IDLE, 1, 1
 10, 12970793,   0,  -1,  -7,   0,   0,   0,  -4,  -5,   0,   3,   0,   0, 1000, 1.090, 34.125, 225,   0,   1,   3, -50, 410, 2073,   0,   0,   0,   0, 1200, 1213, 1200, 1200, -113, ANGLE_MODE, SMALL_ANGLE, IDLE, 1, 1
 11, 12971806,   0,  -1,  -8,   0,   0,   0,  -4,  -5,   0,   3,   0,   0, 1000, 1.090, 34.125, 225,   0,   1,   3, -50, 410, 2073,   0,   0,   0,   0, 1200, 1214, 1200, 1200, -113, ANGLE_MODE, SMALL_ANGLE, IDLE, 1, 1
 12, 12972811,   0,  -1,  -9,   0,   0,   0,  -4,  -5,   0,   3,   0,   0, 1000, 1.090, 34.125, 225,   0,   1,   3, -50, 410, 2073,   0,   0,   0,   0, 1200, 1215, 1200, 1200, -113, ANGLE_MODE, SMALL_ANGLE, IDLE, 1, 1
 13, 12973822,   0,  -1, -10,   0,   0,   0,  -3,  -4,   0,   3,   0,   0, 1000, 1.090, 34.125, 225,   0,   1,   4, -51, 409, 2073,   0,   0,   0,   0, 1200, 1214, 1201, 1200, -113, ANGLE_MODE, SMALL_ANGLE, IDLE, 1, 1
 14, 12974828,   0,  -1, -11,   0,   0,   0,  -1,  -3,   0,   3,   0,   0, 1000, 1.090, 34.125, 225,   0,   1,   4, -51, 409, 2073,   0,   0,   0,   0, 1200, 1212, 1204, 1200, -113, ANGLE_MODE, SMALL_ANGLE, IDLE, 1, 1
 15, 12975834,   0,  -1, -12,   0,   0,   0,   0,  -1,   0,   3,   0,   0, 1000, 1.090, 34.125, 225,   0,   1,   5, -51, 408, 2074,   0,   0,   0,   0, 1200, 1210, 1208, 1200, -113, ANGLE_MODE, SMALL_ANGLE, IDLE, 1, 1
 16, 12976839,   0,   0, -12,   0,   0,   0,   1,   0,   0,   3,   0,   0, 1000, 1.090, 34.125, 225,   0,   1,   4, -51, 408, 2074,   0,   0,   0,   0, 1200, 1208, 1210, 1200, -113, ANGLE_MODE, SMALL_ANGLE, IDLE, 1, 1
 17, 12977851,   0,   0, -11,   0,   0,   0,   1,   2,   0,   3,   0,   0, 1000, 1.090, 34.125, 225,   0,   1,   4, -51, 408, 2073,   0,   0,   0,   0, 1200, 1206, 1210, 1200, -113, ANGLE_MODE, SMALL_ANGLE, IDLE, 1, 1
 18, 12978863,   0,   0,  -9,   0,   0,   0,   0,   3,   0,   3,   0,   0, 1000, 1.090, 34.125, 225,   0,   1,   4, -51, 408, 2073,   0,   0,   0,   0, 1200, 1205, 1209, 1200, -113, ANGLE_MODE, SMALL_ANGLE, IDLE, 1, 1
 19, 12979882,   0,   0,  -8,   0,   0,   0,   0,   3,   0,   3,   0,   0, 1000, 1.090, 34.125, 225,   0,   0,   3, -51, 408, 2073,   0,   0,   0,   0, 1200, 1204, 1208, 1200, -113, ANGLE_MODE, SMALL_ANGLE, IDLE, 1, 1
 20, 12980889,   0,   0,  -7,   0,   0,   0,   0,   2,   0,   3,   0,   0, 1000, 1.081, 35.475, 225,   0,   0,   3, -51, 409, 2073,   0,   0,   0,   0, 1200, 1203, 1207, 1200, -113, ANGLE_MODE, SMALL_ANGLE, IDLE, 1, 1
 21, 12981890,   0,   0,  -7,   0,   0,   0,   0,   2,   0,   3,   0,   0, 1000, 1.081, 35.475, 225,   0,   0,   3, -52, 409, 2073,   0,   0,   0,   0, 1200, 1203, 1208, 1200, -113, ANGLE_MODE, SMALL_ANGLE, IDLE, 1, 1
 22, 12982895,   1,   0,  -6,   0,   0,   0,   2,   1,   0,   3,   0,   0, 1000, 1.081, 35.475, 225,   0,   0,   2, -52, 409, 2073,   0,   0,   0,   0, 1200, 1201, 1208, 1200, -113, ANGLE_MODE, SMALL_ANGLE, IDLE, 1, 1
 23, 12983907,   1,   0,  -5,   0,   0,   0,   2,   1,   0,   3,   0,   0, 1000, 1.081, 35.475, 225,   0,   0,   2, -52, 409, 2074,   0,   0,   0,   0, 1200, 1200, 1208, 1200, -113, ANGLE_MODE, SMALL_ANGLE, IDLE, 1, 1
 24, 12984912,   0,   0,  -3,   0,   0,   0,   2,   1,   0,   3,   0,   0, 1000, 1.081, 35.475, 225,   0,   0,   1, -52, 409, 2074,   0,   0,   0,   0, 1200, 1200, 1206, 1200, -113, ANGLE_MODE, SMALL_ANGLE, IDLE, 1, 1
 25, 12985917,   0,   0,  -2,   0,   0,   0,   0,   2,   0,   3,   0,   0, 1000, 1.081, 35.475, 225,   0,   0,   1, -52, 409, 2074,   0,   0,   0,   0, 1200, 1200, 1205, 1200, -113, ANGLE_MODE, SMALL_ANGLE, IDLE, 1, 1
 26, 12986924,   0,   0,  -1,   0,   0,   0,   0,   2,   0,   3,   0,   0, 1000, 1.081, 35.475, 225,   0,   0,   1, -52, 409, 2073,   0,   0,   0,   0, 1201, 1200, 1203, 1200, -113, ANGLE_MODE, SMALL_ANGLE, IDLE, 1, 1
 27, 12987941,   1,   0,  -1,   0,   0,   0,  -1,   2,   0,   3,   0,   0, 1000, 1.081, 35.475, 225,   0,  -1,   0, -52, 410, 2074,   0,   0,   0,   0, 1201, 1200, 1203, 1200, -113, ANGLE_MODE, SMALL_ANGLE, IDLE, 1, 1
 28, 12988951,   1,   1,   0,   0,   0,   0,   0,   2,   0,   3,   0,   0, 1000, 1.081, 35.475, 225,   0,  -1,   0, -51, 410, 2075,   0,   0,   0,   0, 1202, 1200, 1204, 1200, -113, ANGLE_MODE, SMALL_ANGLE, IDLE, 1, 1
 29, 12989955,   1,   1,   0,   0,   0,   0,   0,   3,   0,   3,   0,   0, 1000, 1.081, 35.475, 225,  -1,  -1,   0, -52, 410, 2076,   0,   0,   0,   0, 1202, 1200, 1205, 1200, -113, ANGLE_MODE, SMALL_ANGLE, IDLE, 1, 1
 30, 12990958,   1,   1,   2,   0,   0,   0,   2,   3,   0,   3,   0,   0, 1000, 1.081, 35.475, 225,  -1,  -1,  -1, -52, 409, 2075,   0,   0,   0,   0, 1203, 1200, 1205, 1201, -113, ANGLE_MODE, SMALL_ANGLE, IDLE, 1, 1
 31, 12991970,   1,   1,   4,   0,   0,   0,   3,   4,   0,   3,   0,   0, 1000, 1.081, 35.475, 225,  -1,  -1,  -2, -53, 409, 2076,   0,   0,   0,   0, 1204, 1200, 1205, 1202, -113, ANGLE_MODE, SMALL_ANGLE, IDLE, 1, 1
 32, 12992977,   2,   2,   6,   0,   0,   0,   3,   3,   0,   3,   0,   0, 1000, 1.081, 35.475, 225,  -1,  -1,  -2, -53, 409, 2076,   0,   0,   0,   0, 1205, 1200, 1204, 1204, -113, ANGLE_MODE, SMALL_ANGLE, IDLE, 1, 1
 33, 12993990,   2,   2,   8,   0,   0,   0,   3,   3,   0,   3,   0,   0, 1000, 1.081, 35.475, 225,  -1,  -1,  -3, -52, 409, 2076,   0,   0,   0,   0, 1206, 1200, 1202, 1205, -113, ANGLE_MODE, SMALL_ANGLE, IDLE, 1, 1
 34, 12994999,   2,   2,   8,   0,   0,   0,   2,   2,   0,   3,   0,   0, 1000, 1.081, 35.475, 225,  -1,  -1,  -3, -52, 410, 2076,   0,   0,   0,   0, 1206, 1200, 1201, 1206, -113, ANGLE_MODE, SMALL_ANGLE, IDLE, 1, 1
 35, 12996006,   1,   2,   9,   0,   0,   0,   1,   2,   0,   3,   0,   0, 1000, 1.081, 35.475, 225,  -1,  -2,  -3, -52, 410, 2077,   0,   0,   0,   0, 1207, 1200, 1200, 1206, -113, ANGLE_MODE, SMALL_ANGLE, IDLE, 1, 1
 36, 12997016,   1,   2,  10,   0,   0,   0,   0,   1,   0,   3,   0,   0, 1000, 1.081, 35.475, 225,   0,  -2,  -4, -52, 411, 2078,   0,   0,   0,   0, 1209, 1200, 1200, 1205, -113, ANGLE_MODE, SMALL_ANGLE, IDLE, 1, 1
 37, 12998020,   0,   2,  10,   0,   0,   0,  -1,   1,   0,   3,   0,   0, 1000, 1.081, 35.475, 225,   0,  -2,  -4, -51, 411, 2077,   0,   0,   0,   0, 1212, 1200, 1200, 1204, -113, ANGLE_MODE, SMALL_ANGLE, IDLE, 1, 1
 38, 12999029,   0,   2,  11,   0,   0,   0,  -3,   2,   0,   3,   0,   0, 1000, 1.081, 35.475, 225,   0,  -2,  -4, -51, 411, 2077,   0,   0,   0,   0, 1214, 1200, 1200, 1202, -113, ANGLE_MODE, SMALL_ANGLE, IDLE, 1, 1
 39, 13000042,   1,   3,  11,   0,   0,   0,  -4,   2,   0,   3,   0,   0, 1000, 1.081, 35.475, 225,   0,  -2,  -4, -51, 411, 2078,   0,   0,   0,   0, 1214, 1200, 1200, 1202, -113, ANGLE_MODE, SMALL_ANGLE, IDLE, 1, 1
 40, 13001055,   1,   2,  11,   0,   0,   0,  -3,   1,   0,   3,   0,   0, 1000, 1.081, 35.475, 225,   0,  -2,  -4, -51, 412, 2078,   0,   0,   0,   0, 1213, 1200, 1200, 1203, -113, ANGLE_MODE, SMALL_ANGLE, IDLE, 1, 1
 41, 13002062,   1,   2,  11,   0,   0,   0,   0,   1,   0,   3,   0,   0, 1000, 1.081, 35.475, 225,  -1,  -2,  -4, -51, 412, 2078,   0,   0,   0,   0, 1210, 1200, 1200, 1206, -113, ANGLE_MODE, SMALL_ANGLE, IDLE, 1, 1
 42, 13003070,   2,   2,  11,   0,   0,   0,   1,   0,   0,   3,   0,   0, 1000, 1.081, 35.475, 225,  -1,  -2,  -4, -51, 413, 2078,   0,   0,   0,   0, 1207, 1200, 1200, 1209, -113, ANGLE_MODE, SMALL_ANGLE, IDLE, 1, 1
 43, 13004086,   1,   2,  12,   0,   0,   0,   3,   0,   0,   3,   0,   0, 1000, 1.081, 35.475, 225,  -1,  -2,  -4, -51, 414, 2079,   0,   0,   0,   0, 1206, 1200, 1200, 1211, -113, ANGLE_MODE, SMALL_ANGLE, IDLE, 1, 1
 44, 13005096,   1,   2,  12,   0,   0,   0,   2,  -1,   0,   3,   0,   0, 1000, 1.081, 35.475, 225,   0,  -1,  -5, -51, 414, 2078,   0,   0,   0,   0, 1206, 1200, 1200, 1212, -113, ANGLE_MODE, SMALL_ANGLE, IDLE, 1, 1
 45, 13006101,   1,   2,  12,   0,   0,   0,   0,  -2,   0,   3,   0,   0, 1000, 1.081, 35.475, 225,   0,  -1,  -5, -51, 414, 2079,   0,   0,   0,   0, 1207, 1200, 1200, 1211, -113, ANGLE_MODE, SMALL_ANGLE, IDLE, 1, 1
 46, 13007103,   0,   1,  12,   0,   0,   0,  -1,  -3,   0,   3,   0,   0, 1000, 1.081, 35.475, 225,   0,  -1,  -5, -51, 414, 2079,   0,   0,   0,   0, 1209, 1200, 1200, 1209, -113, ANGLE_MODE, SMALL_ANGLE, IDLE, 1, 1
 47, 13008119,   0,   1,  11,   0,   0,   0,  -3,  -3,   0,   3,   0,   0, 1000, 1.081, 35.475, 225,   0,  -1,  -4, -50, 414, 2080,   0,   0,   0,   0, 1209, 1200, 1200, 1208, -113, ANGLE_MODE, SMALL_ANGLE, IDLE, 1, 1
 48, 13009134,   0,   0,  10,   0,   0,   0,  -4,  -3,   0,   3,   0,   0, 1000, 1.081, 35.475, 225,   0,  -1,  -4, -50, 414, 2080,   0,   0,   0,   0, 1208, 1200, 1200, 1207, -113, ANGLE_MODE, SMALL_ANGLE, IDLE, 1, 1
 49, 13010142,   0,   1,   8,   0,   0,   0,  -4,  -4,   0,   3,   0,   0, 1000, 1.081, 35.475, 225,   1,  -1,  -3, -50, 413, 2080,   0,   0,   0,   0, 1208, 1200, 1200, 1205, -113, ANGLE_MODE, SMALL_ANGLE, IDLE, 1, 1
 50, 13011148,   0,   1,   8,   0,   0,   0,  -4,  -3,   0,   3,   0,   0, 1000, 1.081, 35.475, 225,   1,  -1,  -3, -50, 412, 2080,   0,   0,   0,   0, 1208, 1200, 1200, 1204, -114, ANGLE_MODE, SMALL_ANGLE, IDLE, 1, 1
 51, 13012163,  -1,   0,   8,   0,   0,   0,  -5,  -2,   0,   3,   0,   0, 1000, 1.081, 35.475, 225,   1,  -1,  -3, -50, 411, 2080,   0,   0,   0,   0, 1209, 1200, 1200, 1203, -114, ANGLE_MODE, SMALL_ANGLE, IDLE, 1, 1
 52, 13013173,  -1,   0,   7,   0,   0,   0,  -4,  -1,   0,   3,   0,   0, 1000, 1.081, 35.475, 225,   1,   0,  -3, -49, 410, 2080,   0,   0,   0,   0, 1209, 1200, 1200, 1202, -114, ANGLE_MODE, SMALL_ANGLE, IDLE, 1, 1
 53, 13014181,   0,   0,   6,   0,   0,   0,  -4,  -1,   0,   3,   0,   0, 1000, 1.081, 35.475, 225,   1,   0,  -2, -48, 409, 2080,   0,   0,   0,   0, 1208, 1200, 1200, 1202, -114, ANGLE_MODE, SMALL_ANGLE, IDLE, 1, 1
 54, 13015196,   0,   0,   4,   0,   0,   0,  -2,  -1,   0,   3,   0,   0, 1000, 1.081, 35.475, 225,   1,   0,  -2, -48, 408, 2081,   0,   0,   0,   0, 1206, 1200, 1200, 1202, -114, ANGLE_MODE, SMALL_ANGLE, IDLE, 1, 1
 55, 13016212,   0,   0,   2,   0,   0,   0,   0,  -1,   0,   3,   0,   0, 1000, 1.081, 35.475, 225,   0,   0,  -1, -47, 408, 2081,   0,   0,   0,   0, 1201, 1200, 1200, 1203, -114, ANGLE_MODE, SMALL_ANGLE, IDLE, 1, 1
 56, 13017227,   0,   0,   0,   0,   0,   0,   1,  -2,   0,   3,   0,   0, 1000, 1.081, 35.475, 225,   0,   0,   0, -47, 408, 2081,   0,   0,   0,   0, 1200, 1201, 1200, 1203, -114, ANGLE_MODE, SMALL_ANGLE, IDLE, 1, 1
 57, 13018236,   0,   0,  -2,   0,   0,   0,   3,  -3,   0,   3,   0,   0, 1000, 1.081, 35.475, 225,   1,   0,   1, -47, 407, 2081,   0,   0,   0,   0, 1200, 1202, 1201, 1203, -114, ANGLE_MODE, SMALL_ANGLE, IDLE, 1, 1
 58, 13019251,   0,  -1,  -3,   0,   0,   0,   2,  -4,   0,   3,   0,   0, 1000, 1.081, 35.475, 225,   1,   1,   1, -46, 406, 2082,   0,   0,   0,   0, 1200, 1204, 1201, 1203, -114, ANGLE_MODE, SMALL_ANGLE, IDLE, 1, 1
 59, 13020308,   0,  -1,  -4,   0,   0,   0,   1,  -4,   0,   3,   0,   0, 1000, 1.081, 35.475, 225,   1,   1,   1, -46, 406, 2081,   0,   0,   0,   0, 1200, 1207, 1200, 1202, -114, ANGLE_MODE, SMALL_ANGLE, IDLE, 1, 1
 60, 13021325,  -1,  -1,  -3,   0,   0,   0,   0,  -5,   0,   3,   0,   0, 1000, 1.081, 34.575, 225,   1,   1,   1, -46, 406, 2081,   0,   0,   0,   0, 1200, 1208, 1200, 1201, -114, ANGLE_MODE, SMALL_ANGLE, IDLE, 1, 1
 61, 13022345,  -1,  -1,  -1,   0,   0,   0,  -2,  -4,   0,   3,   0,   0, 1000, 1.081, 34.575, 225,   1,   1,   1, -45, 406, 2081,   0,   0,   0,   0, 1200, 1209, 1200, 1201, -114, ANGLE_MODE, SMALL_ANGLE, IDLE, 1, 1
 62, 13023361,  -1,  -2,   0,   0,   0,   0,  -3,  -4,   0,   3,   0,   0, 1000, 1.081, 34.575, 225,   2,   1,   0, -45, 406, 2082,   0,   0,   0,   0, 1200, 1209, 1200, 1200, -114, ANGLE_MODE, SMALL_ANGLE, IDLE, 1, 1
 63, 13024376,  -1,  -2,   0,   0,   0,   0,  -4,  -3,   0,   3,   0,   0, 1000, 1.081, 34.575, 225,   1,   1,   0, -45, 405, 2081,   0,   0,   0,   0, 1201, 1208, 1200, 1200, -114, ANGLE_MODE, SMALL_ANGLE, IDLE, 1, 1
 64, 13025387,   0,  -2,   2,   0,   0,   0,  -3,  -2,   0,   3,   0,   0, 1000, 1.081, 34.575, 225,   1,   1,  -1, -45, 405, 2081,   0,   0,   0,   0, 1202, 1205, 1200, 1202, -114, ANGLE_MODE, SMALL_ANGLE, IDLE, 1, 1
 65, 13026398,   0,  -2,   4,   0,   0,   0,  -1,  -1,   0,   3,   0,   0, 1000, 1.081, 34.575, 225,   1,   2,  -2, -44, 405, 2082,   0,   0,   0,   0, 1201, 1201, 1200, 1205, -114, ANGLE_MODE, SMALL_ANGLE, IDLE, 1, 1
 66, 13027411,   0,  -2,   4,   0,   0,   0,   1,  -1,   0,   3,   0,   0, 1000, 1.081, 34.575, 225,   0,   2,  -2, -44, 405, 2081,   0,   0,   0,   0, 1200, 1200, 1200, 1208, -114, ANGLE_MODE, SMALL_ANGLE, IDLE, 1, 1
 67, 13028428,   0,  -2,   5,   0,   0,   0,   4,  -1,   0,   3,   0,   0, 1000, 1.081, 34.575, 225,   0,   2,  -2, -44, 405, 2081,   0,   0,   0,   0, 1200, 1200, 1200, 1210, -114, ANGLE_MODE, SMALL_ANGLE, IDLE, 1, 1
 68, 13029432,   0,  -2,   4,   0,   0,   0,   6,  -1,   0,   3,   0,   0, 1000, 1.081, 34.575, 225,   0,   1,  -2, -44, 406, 2081,   0,   0,   0,   0, 1200, 1200, 1200, 1211, -114, ANGLE_MODE, SMALL_ANGLE, IDLE, 1, 1
 69, 13030444,   1,  -2,   2,   0,   0,   0,   7,   0,   0,   3,   0,   0, 1000, 1.081, 34.575, 225,   0,   2,  -1, -43, 406, 2082,   0,   0,   0,   0, 1200, 1200, 1202, 1210, -114, ANGLE_MODE, SMALL_ANGLE, IDLE, 1, 1
 70, 13031444,   0,  -1,   1,   0,   0,   0,   6,   0,   0,   3,   0,   0, 1000, 1.081, 34.575, 225,   0,   1,   0, -43, 406, 2082,   0,   0,   0,   0, 1200, 1200, 1203, 1207, -114, ANGLE_MODE, SMALL_ANGLE, IDLE, 1, 1
 71, 13032459,   0,  -1,   1,   0,   0,   0,   4,   1,   0,   3,   0,   0, 1000, 1.081, 34.575, 225,   0,   1,  -1, -42, 406, 2081,   0,   0,   0,   0, 1200, 1200, 1202, 1206, -114, ANGLE_MODE, SMALL_ANGLE, IDLE, 1, 1
 72, 13033462,   0,  -1,   1,   0,   0,   0,   2,   1,   0,   3,   0,   0, 1000, 1.081, 34.575, 225,   0,   1,   0, -41, 406, 2081,   0,   0,   0,   0, 1200, 1200, 1201, 1203, -114, ANGLE_MODE, SMALL_ANGLE, IDLE, 1, 1
 73, 13034476,   0,  -2,   1,   0,   0,   0,   0,   1,   0,   3,   0,   0, 1000, 1.081, 34.575, 225,   0,   1,   0, -41, 407, 2081,   0,   0,   0,   0, 1200, 1200, 1200, 1202, -114, ANGLE_MODE, SMALL_ANGLE, IDLE, 1, 1
 74, 13035480,   0,  -1,   0,   0,   0,   0,  -1,   1,   0,   3,   0,   0, 1000, 1.081, 34.575, 225,   0,   1,   0, -41, 407, 2081,   0,   0,   0,   0, 1201, 1201, 1200, 1201, -114, ANGLE_MODE, SMALL_ANGLE, IDLE, 1, 1
 75, 13036491,   1,  -2,   0,   0,   0,   0,  -1,   0,   0,   3,   0,   0, 1000, 1.081, 34.575, 225,   0,   1,   0, -41, 406, 2081,   0,   0,   0,   0, 1200, 1202, 1200, 1202, -114, ANGLE_MODE, SMALL_ANGLE, IDLE, 1, 1
 76, 13037494,   1,  -2,  -1,   0,   0,   0,   0,   0,   0,   3,   0,   0, 1000, 1.081, 34.575, 225,   0,   1,   0, -41, 407, 2082,   0,   0,   0,   0, 1200, 1202, 1200, 1202, -114, ANGLE_MODE, SMALL_ANGLE, IDLE, 1, 1
 77, 13038500,   0,  -2,  -1,   0,   0,   0,   0,   0,   0,   3,   0,   0, 1000, 1.081, 34.575, 225,   0,   1,   1, -40, 407, 2082,   0,   0,   0,   0, 1200, 1202, 1200, 1202, -114, ANGLE_MODE, SMALL_ANGLE, IDLE, 1, 1
 78, 13039515,   0,  -2,  -1,   0,   0,   0,   0,   0,   0,   3,   0,   0, 1000, 1.081, 34.575, 225,   0,   2,   1, -40, 407, 2081,   0,   0,   0,   0, 1200, 1203, 1200, 1202, -114, ANGLE_MODE, SMALL_ANGLE, IDLE, 1, 1
 79, 13040515,   0,  -2,  -1,   0,   0,   0,  -1,  -1,   0,   3,   0,  -1, 1000, 1.081, 34.575, 225,   1,   2,   0, -40, 407, 2081,   0,   0,   0,   0, 1200, 1205, 1200, 1201, -114, ANGLE_MODE, SMALL_ANGLE, IDLE, 1, 1
 80, 13041527,  -2,  -2,  -1,   0,   0,   0,  -5,  -1,   0,   3,   0,  -1, 1000, 1.081, 34.575, 225,   2,   2,   0, -40, 407, 2081,   0,   0,   0,   0, 1201, 1209, 1200, 1200, -114, ANGLE_MODE, SMALL_ANGLE, IDLE, 1, 1
 81, 13042546,  -2,  -3,  -1,   0,   0,   0,  -8,  -2,   0,   3,   0,  -1, 1000, 1.081, 34.575, 225,   2,   2,   0, -39, 407, 2081,   0,   0,   0,   0, 1203, 1214, 1200, 1200, -114, ANGLE_MODE, SMALL_ANGLE, IDLE, 1, 1
 82, 13043558,  -3,  -3,   0,   0,   0,   0, -11,  -3,   0,   3,   0,  -1, 1000, 1.081, 34.575, 225,   3,   3,   0, -39, 408, 2081,   0,   0,   0,   0, 1204, 1216, 1200, 1200, -114, ANGLE_MODE, SMALL_ANGLE, IDLE, 1, 1
 83, 13044570,  -3,  -4,   0,   0,   0,   0, -11,  -4,   0,   3,   0,  -1, 1000, 1.081, 34.575, 225,   2,   3,   0, -39, 407, 2081,   0,   0,   0,   0, 1204, 1217, 1200, 1200, -114, ANGLE_MODE, SMALL_ANGLE, IDLE, 1, 1
 84, 13045585,  -2,  -3,   0,   0,   0,   0,  -8,  -4,   0,   3,   0,  -1, 1000, 1.081, 34.575, 225,   2,   3,   0, -40, 407, 2081,   0,   0,   0,   0, 1201, 1215, 1200, 1200, -114, ANGLE_MODE, SMALL_ANGLE, IDLE, 1, 1
 85, 13046591,  -2,  -4,  -2,   0,   0,   0,  -4,  -4,   0,   3,   0,  -1, 1000, 1.081, 34.575, 225,   2,   3,   1, -40, 406, 2081,   0,   0,   0,   0, 1200, 1213, 1200, 1200, -114, ANGLE_MODE, SMALL_ANGLE, IDLE, 1, 1
 86, 13047602,  -2,  -4,  -3,   0,   0,   0,   0,  -3,   0,   3,   0,  -1, 1000, 1.081, 34.575, 225,   2,   3,   1, -41, 405, 2081,   0,   0,   0,   0, 1200, 1211, 1200, 1201, -114, ANGLE_MODE, SMALL_ANGLE, IDLE, 1, 1
 87, 13048616,  -1,  -4,  -3,   0,   0,   0,   2,  -3,   0,   3,   0,  -1, 1000, 1.081, 34.575, 225,   1,   3,   1, -41, 404, 2080,   0,   0,   0,   0, 1200, 1207, 1200, 1204, -114, ANGLE_MODE, SMALL_ANGLE, IDLE, 1, 1
 88, 13049616,  -1,  -4,  -2,   0,   0,   0,   4,  -2,   0,   3,   0,  -1, 1000, 1.081, 34.575, 225,   1,   3,   1, -41, 403, 2080,   0,   0,   0,   0, 1200, 1205, 1200, 1205, -114, ANGLE_MODE, SMALL_ANGLE, IDLE, 1, 1
 89, 13050618,  -1,  -4,   0,   0,   0,   0,   5,  -2,   0,   3,   0,  -1, 1000, 1.081, 34.575, 225,   1,   3,   0, -42, 403, 2080,   0,   0,   0,   0, 1200, 1202, 1200, 1208, -114, ANGLE_MODE, SMALL_ANGLE, IDLE, 1, 1
 90, 13051635,   0,  -5,   0,   0,   0,   0,   5,  -1,   0,   3,   0,  -1, 1000, 1.081, 34.575, 225,   1,   3,   0, -42, 402, 2080,   0,   0,   0,   0, 1200, 1201, 1200, 1209, -114, ANGLE_MODE, SMALL_ANGLE, IDLE, 1, 1
 91, 13052646,   0,  -4,   0,   0,   0,   0,   6,   0,   0,   3,   0,  -1, 1000, 1.081, 34.575, 225,   0,   3,   0, -42, 401, 2080,   0,   0,   0,   0, 1200, 1200, 1201, 1209, -114, ANGLE_MODE, SMALL_ANGLE, IDLE, 1, 1
 92, 13053658,   0,  -4,   0,   0,   0,   0,   7,   0,   0,   3,   0,  -1, 1000, 1.081, 34.575, 225,   0,   3,   0, -43, 400, 2079,   0,   0,   0,   0, 1200, 1200, 1202, 1209, -114, ANGLE_MODE, SMALL_ANGLE, IDLE, 1, 1
 93, 13054670,   0,  -4,   0,   0,   0,   0,   6,   0,   0,   3,   0,  -1, 1000, 1.081, 34.575, 225,   0,   3,   0, -43, 400, 2079,   0,   0,   0,   0, 1200, 1200, 1201, 1208, -114, ANGLE_MODE, SMALL_ANGLE, IDLE, 1, 1
 94, 13055683,   0,  -4,   0,   0,   0,   0,   3,   0,   0,   3,   0,  -1, 1000, 1.081, 34.575, 225,   1,   3,   0, -43, 399, 2079,   0,   0,   0,   0, 1200, 1201, 1200, 1205, -114, ANGLE_MODE, SMALL_ANGLE, IDLE, 1, 1
 95, 13056693,  -2,  -3,   1,   0,   0,   0,   0,   1,   0,   3,   0,  -1, 1000, 1.081, 34.575, 225,   2,   2,  -1, -43, 398, 2079,   0,   0,   0,   0, 1201, 1203, 1200, 1201, -114, ANGLE_MODE, SMALL_ANGLE, IDLE, 1, 1
 96, 13057699,  -3,  -3,   3,   0,   0,   0,  -6,   2,   0,   3,   0,  -1, 1000, 1.081, 34.575, 225,   2,   2,  -1, -43, 398, 2080,   0,   0,   0,   0, 1208, 1206, 1200, 1200, -114, ANGLE_MODE, SMALL_ANGLE, IDLE, 1, 1
 97, 13058706,  -3,  -3,   1,   0,   0,   0, -10,   3,   0,   3,   0,  -1, 1000, 1.081, 34.575, 225,   3,   2,  -1, -43, 398, 2081,   0,   0,   0,   0, 1211, 1209, 1200, 1200, -114, ANGLE_MODE, SMALL_ANGLE, IDLE, 1, 1
 98, 13059712,  -4,  -3,   0,   0,   0,   0, -12,   4,   0,   3,   0,  -1, 1000, 1.081, 34.575, 225,   3,   2,   0, -43, 398, 2081,   0,   0,   0,   0, 1211, 1212, 1200, 1200, -114, ANGLE_MODE, SMALL_ANGLE, IDLE, 1, 1
 99, 13060715,  -4,  -3,  -1,   0,   0,   0, -12,   3,   0,   3,   0,   0, 1000, 1.081, 34.575, 225,   3,   2,   0, -43, 399, 2081,   0,   0,   0,   0, 1211, 1213, 1200, 1200, -114, ANGLE_MODE, SMALL_ANGLE, IDLE, 1, 1
100, 13061733,  -4,  -3,   0,   0,   0,   0, -10,   2,   0,   3,   0,   0, 1000, 1.090, 34.450, 225,   3,   2,   0, -43, 399, 2081,   0,   0,   0,   0, 1210, 1211, 1200, 1200, -114, ANGLE_MODE, SMALL_ANGLE, IDLE, 1, 1
101, 13062738,  -4,  -2,   2,   0,   0,   0,  -7,   1,   0,   3,   0,   0, 1000, 1.090, 34.450, 225,   4,   2,  -1, -43, 400, 2082,   0,   0,   0,   0, 1209, 1208, 1200, 1200, -114, ANGLE_MODE, SMALL_ANGLE, IDLE, 1, 1
102, 13063755,  -5,  -2,   2,   0,   0,   0,  -5,   1,   0,   3,   0,   0, 1000, 1.090, 34.450, 225,   4,   2,  -1, -43, 400, 2083,   0,   0,   0,   0, 1209, 1206, 1200, 1200, -114, ANGLE_MODE, SMALL_ANGLE, IDLE, 1, 1
103, 13064764,  -5,  -2,   1,   0,   0,   0,  -3,   2,   0,   3,   0,   0, 1000, 1.090, 34.450, 225,   4,   2,  -1, -43, 401, 2083,   0,   0,   0,   0, 1207, 1205, 1200, 1200, -114, ANGLE_MODE, SMALL_ANGLE, IDLE, 1, 1
104, 13065775,  -5,  -2,   0,   0,   0,   0,  -2,   1,   0,   3,   0,   0, 1000, 1.090, 34.450, 225,   4,   2,   0, -44, 402, 2083,   0,   0,   0,   0, 1205, 1206, 1200, 1200, -114, ANGLE_MODE, SMALL_ANGLE, IDLE, 1, 1
105, 13066789,  -5,  -2,   0,   0,   0,   0,  -1,   1,   0,   3,   0,   0, 1000, 1.090, 34.450, 225,   4,   2,   0, -44, 402, 2084,   0,   0,   0,   0, 1204, 1206, 1200, 1200, -114, ANGLE_MODE, SMALL_ANGLE, IDLE, 1, 1
106, 13067799,  -5,  -3,   0,   0,   0,   0,  -1,   0,   0,   3,   0,   0, 1000, 1.090, 34.450, 225,   4,   2,   0, -44, 402, 2085,   0,   0,   0,   0, 1203, 1207, 1200, 1200, -114, ANGLE_MODE, SMALL_ANGLE, IDLE, 1, 1
107, 13068814,  -5,  -3,   1,   0,   0,   0,  -1,   0,   0,   3,   0,   0, 1000, 1.090, 34.450, 225,   4,   2,   0, -45, 401, 2085,   0,   0,   0,   0, 1203, 1207, 1200, 1200, -114, ANGLE_MODE, SMALL_ANGLE, IDLE, 1, 1
108, 13069825,  -5,  -3,   2,   0,   0,   0,  -1,  -1,   0,   3,   0,   0, 1000, 1.090, 34.450, 225,   4,   2,  -1, -46, 401, 2085,   0,   0,   0,   0, 1204, 1207, 1200, 1200, -114, ANGLE_MODE, SMALL_ANGLE, IDLE, 1, 1
109, 13070838,  -5,  -3,   2,   0,   0,   0,  -1,  -1,   0,   3,   0,   0, 1000, 1.090, 34.450, 225,   4,   2,  -1, -46, 401, 2085,   0,   0,   0,   0, 1203, 1207, 1200, 1201, -114, ANGLE_MODE, SMALL_ANGLE, IDLE, 1, 1
110, 13071853,  -4,  -3,   2,   0,   0,   0,   0,  -2,   0,   3,   0,   0, 1000, 1.090, 34.450, 225,   3,   3,  -1, -47, 401, 2086,   0,   0,   0,   0, 1201, 1206, 1200, 1203, -114, ANGLE_MODE, SMALL_ANGLE, IDLE, 1, 1
111, 13072864,  -3,  -4,   4,   0,   0,   0,   2,  -3,   0,   3,   0,   0, 1000, 1.090, 34.450, 225,   3,   3,  -1, -48, 401, 2085,   0,   0,   0,   0, 1200, 1203, 1200, 1207, -114, ANGLE_MODE, SMALL_ANGLE, IDLE, 1, 1
112, 13073868,  -3,  -3,   3,   0,   0,   0,   5,  -3,   0,   3,   0,   0, 1000, 1.090, 34.450, 225,   3,   3,  -1, -49, 400, 2085,   0,   0,   0,   0, 1200, 1201, 1200, 1209, -114, ANGLE_MODE, SMALL_ANGLE, IDLE, 1, 1
113, 13074871,  -1,  -3,   2,   0,   0,   0,   8,  -1,   0,   3,   0,   0, 1000, 1.090, 34.450, 225,   1,   2,  -1, -50, 400, 2086,   0,   0,   0,   0, 1200, 1200, 1200, 1210, -114, ANGLE_MODE, SMALL_ANGLE, IDLE, 1, 1
114, 13075876,  -1,  -2,   1,   0,   0,   0,  10,   0,   0,   3,   0,   0, 1000, 1.090, 34.450, 225,   1,   2,  -1, -50, 400, 2087,   0,   0,   0,   0, 1200, 1200, 1203, 1209, -114, ANGLE_MODE, SMALL_ANGLE, IDLE, 1, 1
115, 13076888,  -1,  -2,  -1,   0,   0,   0,  10,   2,   0,   3,   0,   0, 1000, 1.090, 34.450, 225,   2,   2,   0, -51, 399, 2086,   0,   0,   0,   0, 1200, 1200, 1206, 1205, -114, ANGLE_MODE, SMALL_ANGLE, IDLE, 1, 1
116, 13077892,   0,  -2,  -2,   0,   0,   0,   9,   4,   0,   3,   0,   0, 1000, 1.090, 34.450, 225,   1,   2,   1, -52, 399, 2086,   0,   0,   0,   0, 1200, 1200, 1208, 1203, -114, ANGLE_MODE, SMALL_ANGLE, IDLE, 1, 1
117, 13078903,  -1,  -1,  -4,   0,   0,   0,   7,   4,   0,   3,   0,   0, 1000, 1.090, 34.450, 225,   1,   1,   2, -53, 400, 2086,   0,   0,   0,   0, 1200, 1200, 1209, 1200, -114, ANGLE_MODE, SMALL_ANGLE, IDLE, 1, 1
118, 13079923,  -2,  -2,  -5,   0,   0,   0,   3,   4,   0,   3,   0,   0, 1000, 1.090, 34.450, 225,   2,   1,   2, -54, 400, 2086,   0,   0,   0,   0, 1200, 1202, 1205, 1200, -114, ANGLE_MODE, SMALL_ANGLE, IDLE, 1, 1
119, 13080930,  -2,  -1,  -3,   0,   0,   0,   0,   3,   0,   3,   0,   0, 1000, 1.090, 34.450, 225,   2,   1,   1, -54, 400, 2085,   0,   0,   0,   0, 1201, 1203, 1202, 1200, -114, ANGLE_MODE, SMALL_ANGLE, IDLE, 1, 1
120, 13081947,  -2,  -1,  -3,   0,   0,   0,  -3,   3,   0,   3,   0,   0, 1000, 1.090, 34.450, 225,   2,   1,   1, -55, 401, 2085,   0,   0,   0,   0, 1204, 1205, 1200, 1200, -114, ANGLE_MODE, SMALL_ANGLE, IDLE, 1, 1
121, 13082952,  -3,   0,  -2,   0,   0,   0,  -5,   4,   0,   3,   0,   0, 1000, 1.090, 34.450, 225,   3,   1,   1, -56, 402, 2084,   0,   0,   0,   0, 1207, 1206, 1200, 1200, -114, ANGLE_MODE, SMALL_ANGLE, IDLE, 1, 1
122, 13083958,  -3,  -1,   0,   0,   0,   0,  -6,   3,   0,   3,   0,   0, 1000, 1.090, 34.450, 225,   3,   1,   0, -56, 404, 2083,   0,   0,   0,   0, 1209, 1206, 1200, 1200, -114, ANGLE_MODE, SMALL_ANGLE, IDLE, 1, 1
123, 13084972,  -4,  -1,   1,   0,   0,   0,  -7,   3,   0,   3,   0,   0, 1000, 1.090, 34.450, 225,   3,   1,   0, -56, 405, 2083,   0,   0,   0,   0, 1211, 1206, 1200, 1200, -114, ANGLE_MODE, SMALL_ANGLE, IDLE, 1, 1
124, 13085977,  -4,  -1,   2,   0,   0,   0,  -7,   2,   0,   3,   0,   0, 1000, 1.090, 34.450, 225,   3,   1,  -1, -57, 406, 2083,   0,   0,   0,   0, 1211, 1205, 1200, 1200, -114, ANGLE_MODE, SMALL_ANGLE, IDLE, 1, 1
125, 13086984,  -4,  -1,   3,   0,   0,   0,  -6,   1,   0,   3,   0,   0, 1000, 1.090, 34.450, 225,   4,   1,  -1, -57, 407, 2083,   0,   0,   0,   0, 1211, 1206, 1200, 1200, -114, ANGLE_MODE, SMALL_ANGLE, IDLE, 1, 1
126, 13087995,  -4,  -1,   4,   0,   0,   0,  -5,   0,   0,   3,   0,   0, 1000, 1.090, 34.450, 225,   3,   1,  -1, -58, 408, 2082,   0,   0,   0,   0, 1209, 1205, 1200, 1200, -114, ANGLE_MODE, SMALL_ANGLE, IDLE, 1, 1
127, 13089013,  -3,   0,   4,   0,   0,   0,  -2,   0,   0,   3,   0,   0, 1000, 1.090, 34.450, 225,   3,   0,  -2, -59, 410, 2081,   0,   0,   0,   0, 1207, 1202, 1200, 1200, -114, ANGLE_MODE, SMALL_ANGLE, IDLE, 1, 1
128, 13090021,  -3,   0,   4,   0,   0,   0,   0,   0,   0,   3,   0,   0, 1000, 1.090, 34.450, 225,   3,   0,  -2, -60, 410, 2082,   0,   0,   0,   0, 1206, 1200, 1200, 1201, -114, ANGLE_MODE, SMALL_ANGLE, IDLE, 1, 1
129, 13091031,  -4,  -1,   4,   0,   0,   0,   2,   0,   0,   3,   0,   0, 1000, 1.090, 34.450, 225,   3,   1,  -1, -61, 411, 2081,   0,   0,   0,   0, 1204, 1200, 1200, 1202, -114, ANGLE_MODE, SMALL_ANGLE, IDLE, 1, 1
130, 13092041,  -4,  -1,   2,   0,   0,   0,   2,   0,   0,   3,   0,   0, 1000, 1.090, 34.450, 225,   4,   1,  -1, -61, 412, 2080,   0,   0,   0,   0, 1203, 1201, 1200, 1201, -114, ANGLE_MODE, SMALL_ANGLE, IDLE, 1, 1
131, 13093056,  -5,  -1,   1,   0,   0,   0,   0,   0,   0,   3,   0,   0, 1000, 1.090, 34.450, 225,   4,   1,  -1, -62, 413, 2079,   0,   0,   0,   0, 1203, 1204, 1200, 1200, -114, ANGLE_MODE, SMALL_ANGLE, IDLE, 1, 1
132, 13094072,  -5,  -1,   0,   0,   0,   0,  -2,  -1,   0,   3,   0,   0, 1000, 1.090, 34.450, 225,   4,   1,   0, -63, 413, 2078,   0,   0,   0,   0, 1204, 1208, 1200, 1200, -114, ANGLE_MODE, SMALL_ANGLE, IDLE, 1, 1
133, 13095078,  -4,  -1,  -1,   0,   0,   0,  -4,  -1,   0,   3,   0,   0, 1000, 1.090, 34.450, 225,   4,   1,   1, -64, 412, 2078,   0,   0,   0,   0, 1203, 1210, 1200, 1200, -114, ANGLE_MODE, SMALL_ANGLE, IDLE, 1, 1
134, 13096085,  -4,   0,  -2,   0,   0,   0,  -3,   0,   0,   3,   0,   0, 1000, 1.090, 34.450, 225,   3,   0,   1, -65, 413, 2079,   0,   0,   0,   0, 1203, 1208, 1200, 1200, -114, ANGLE_MODE, SMALL_ANGLE, IDLE, 1, 1
135, 13097102,  -4,   0,  -2,   0,   0,   0,   0,   0,   0,   3,   0,   0, 1000, 1.090, 34.450, 225,   3,   0,   1, -65, 413, 2079,   0,   0,   0,   0, 1202, 1205, 1200, 1200, -114, ANGLE_MODE, SMALL_ANGLE, IDLE, 1, 1
136, 13098120,  -3,   0,  -2,   0,   0,   0,   2,   2,   0,   3,   0,   0, 1000, 1.090, 34.450, 225,   3,   0,   1, -66, 414, 2078,   0,   0,   0,   0, 1200, 1202, 1202, 1200, -114, ANGLE_MODE, SMALL_ANGLE, IDLE, 1, 1
137, 13099126,  -2,   0,  -2,   0,   0,   0,   5,   3,   0,   3,   0,   0, 1000, 1.090, 34.450, 225,   2,   0,   1, -67, 414, 2077,   0,   0,   0,   0, 1200, 1200, 1205, 1200, -114, ANGLE_MODE, SMALL_ANGLE, IDLE, 1, 1
138, 13100143,  -2,   0,  -3,   0,   0,   0,   6,   3,   0,   3,   0,   0, 1000, 1.090, 34.450, 225,   2,   0,   1, -67, 414, 2077,   0,   0,   0,   0, 1200, 1200, 1207, 1200, -114, ANGLE_MODE, SMALL_ANGLE, IDLE, 1, 1
139, 13101156,  -1,   0,  -4,   0,   0,   0,   7,   3,   0,   4,   0,   0, 1000, 1.090, 34.450, 225,   2,  -1,   1, -67, 415, 2076,   0,   0,   0,   0, 1200, 1200, 1210, 1200, -114, ANGLE_MODE, SMALL_ANGLE, IDLE, 1, 1
140, 13102175,  -1,   1,  -3,   0,   0,   0,   7,   4,   0,   4,   0,   0, 1000, 1.090, 34.450, 225,   2,  -1,   1, -67, 416, 2075,   0,   0,   0,   0, 1200, 1200, 1210, 1200, -114, ANGLE_MODE, SMALL_ANGLE, IDLE, 1, 1
141, 13103186,  -1,   1,  -2,   0,   0,   0,   6,   5,   0,   4,   0,   0, 1000, 1.090, 34.450, 225,   2,  -1,   1, -67, 416, 2076,   0,   0,   0,   0, 1200, 1200, 1210, 1200, -114, ANGLE_MODE, SMALL_ANGLE, IDLE, 1, 1
142, 13104191,  -2,   1,  -2,   0,   0,   0,   4,   5,   0,   4,   0,   0, 1000, 1.090, 34.450, 225,   2,  -1,   1, -67, 416, 2076,   0,   0,   0,   0, 1202, 1200, 1208, 1200, -114, ANGLE_MODE, SMALL_ANGLE, IDLE, 1, 1
143, 13105198,  -2,   1,  -1,   0,   0,   0,   1,   4,   0,   4,   0,   0, 1000, 1.090, 34.450, 225,   2,  -1,   1, -67, 417, 2075,   0,   0,   0,   0, 1203, 1200, 1205, 1200, -114, ANGLE_MODE, SMALL_ANGLE, IDLE, 1, 1
144, 13106207,  -1,   0,   0,   0,   0,   0,   0,   2,   0,   4,   0,   0, 1000, 1.090, 34.450, 225,   2,  -1,   0, -67, 418, 2075,   0,   0,   0,   0, 1204, 1200, 1201, 1200, -114, ANGLE_MODE, SMALL_ANGLE, IDLE, 1, 1
145, 13107211,  -1,   0,   0,   0,   0,   0,   0,   0,   0,   4,   0,   0, 1000, 1.090, 34.450, 225,   1,   0,   0, -67, 418, 2076,   0,   0,   0,   0, 1202, 1201, 1200, 1200, -114, ANGLE_MODE, SMALL_ANGLE, IDLE, 1, 1
146, 13108216,  -1,   0,   0,   0,   0,   0,   0,  -2,   0,   4,   0,   0, 1000, 1.090, 34.450, 225,   1,   0,   0, -66, 418, 2076,   0,   0,   0,   0, 1200, 1202, 1200, 1201, -114, ANGLE_MODE, SMALL_ANGLE, IDLE, 1, 1
147, 13109234,   0,   0,  -2,   0,   0,   0,   2,  -3,   0,   4,   0,   0, 1000, 1.090, 34.450, 225,   1,   0,   1, -66, 419, 2075,   0,   0,   0,   0, 1200, 1203, 1201, 1202, -114, ANGLE_MODE, SMALL_ANGLE, IDLE, 1, 1
148, 13110241,   0,   0,  -4,   0,   0,   0,   3,  -4,   0,   4,   0,   0, 1000, 1.090, 34.450, 225,   1,   0,   2, -66, 420, 2075,   0,   0,   0,   0, 1200, 1204, 1203, 1202, -114, ANGLE_MODE, SMALL_ANGLE, IDLE, 1, 1
149, 13111248,   0,   0,  -7,   0,   0,   0,   3,  -3,   0,   4,   0,   0, 1000, 1.090, 34.450, 225,   1,   0,   3, -67, 420, 2075,   0,   0,   0,   0, 1200, 1206, 1205, 1200, -114, ANGLE_MODE, SMALL_ANGLE, IDLE, 1, 1
150, 13112252,   0,   0,  -7,   0,   0,   0,   3,  -2,   0,   4,   0,   0, 1000, 1.090, 34.450, 225,   1,   0,   3, -67, 419, 2075,   0,   0,   0,   0, 1200, 1205, 1206, 1200, -114, ANGLE_MODE, SMALL_ANGLE, IDLE, 1, 1
151, 13113257,   0,   0,  -6,   0,   0,   0,   4,  -1,   0,   4,   0,   0, 1000, 1.090, 34.450, 225,   0,   0,   2, -68, 419, 2075,   0,   0,   0,   0, 1200, 1202, 1208, 1200, -114, ANGLE_MODE, SMALL_ANGLE, IDLE, 1, 1
152, 13114269,   0,   0,  -4,   0,   0,   0,   4,   0,   0,   4,   0,   0, 1000, 1.090, 34.450, 225,   0,   0,   2, -68, 419, 2076,   0,   0,   0,   0, 1200, 1200, 1208, 1200, -114, ANGLE_MODE, SMALL_ANGLE, IDLE, 1, 1
153, 13115282,   1,   0,  -2,   0,   0,   0,   5,   2,   0,   4,   0,   0, 1000, 1.090, 34.450, 225,   0,  -1,   1, -68, 419, 2075,   0,   0,   0,   0, 1200, 1200, 1208, 1200, -114, ANGLE_MODE, SMALL_ANGLE, IDLE, 1, 1
154, 13116299,   1,   1,  -1,   0,   0,   0,   5,   3,   0,   4,   0,   0, 1000, 1.090, 34.450, 225,   0,  -1,   1, -69, 419, 2075,   0,   0,   0,   0, 1200, 1200, 1208, 1200, -114, ANGLE_MODE, SMALL_ANGLE, IDLE, 1, 1
155, 13117307,   0,   1,  -1,   0,   0,   0,   3,   3,   0,   4,   0,   0, 1000, 1.090, 34.450, 225,   0,  -1,   1, -69, 420, 2075,   0,   0,   0,   0, 1200, 1200, 1207, 1200, -114, ANGLE_MODE, SMALL_ANGLE, IDLE, 1, 1
156, 13118310,   0,   1,  -2,   0,   0,   0,   0,   2,   0,   4,   0,   0, 1000, 1.090, 34.450, 225,   1,  -1,   1, -69, 421, 2075,   0,   0,   0,   0, 1201, 1200, 1205, 1200, -114, ANGLE_MODE, SMALL_ANGLE, IDLE, 1, 1
157, 13119317,  -1,   1,  -1,   0,   0,   0,  -2,   2,   0,   4,   0,   0, 1000, 1.090, 34.450, 225,   1,  -1,   1, -69, 421, 2074,   0,   0,   0,   0, 1204, 1202, 1201, 1200, -114, ANGLE_MODE, SMALL_ANGLE, IDLE, 1, 1
158, 13120325,  -1,   1,  -1,   0,   0,   0,  -6,   1,   0,   4,   0,   0, 1000, 1.090, 34.450, 225,   1,  -1,   1, -68, 422, 2074,   0,   0,   0,   0, 1206, 1204, 1200, 1200, -114, ANGLE_MODE, SMALL_ANGLE, IDLE, 1, 1
159, 13121340,  -1,   1,   0,   0,   0,   0,  -8,   1,   0,   4,  -1,  -1, 1000, 1.090, 34.450, 225,   2,  -1,   0, -68, 423, 2075,   0,   0,   0,   0, 1208, 1205, 1200, 1200, -114, ANGLE_MODE, SMALL_ANGLE, IDLE, 1, 1
160, 13122351,  -1,   1,   3,   0,   0,   0,  -8,   1,   0,   4,  -1,  -1, 1000, 1.090, 34.450, 225,   2,  -1,  -1, -68, 424, 2074,   0,   0,   0,   0, 1211, 1203, 1200, 1200, -114, ANGLE_MODE, SMALL_ANGLE, IDLE, 1, 1
161, 13123369,  -1,   1,   5,   0,   0,   0,  -6,   1,   0,   4,  -1,  -1, 1000, 1.090, 34.450, 225,   2,  -1,  -2, -68, 424, 2073,   0,   0,   0,   0, 1212, 1201, 1200, 1200, -114, ANGLE_MODE, SMALL_ANGLE, IDLE, 1, 1
162, 13124386,  -2,   0,   5,   0,   0,   0,  -4,   0,   0,   4,  -1,  -1, 1000, 1.090, 34.450, 225,   2,  -1,  -2, -67, 425, 2073,   0,   0,   0,   0, 1209, 1200, 1200, 1200, -114, ANGLE_MODE, SMALL_ANGLE, IDLE, 1, 1
163, 13125398,  -2,   0,   5,   0,   0,   0,  -3,   0,   0,   4,  -1,  -1, 1000, 1.090, 34.450, 225,   2,  -1,  -2, -67, 425, 2074,   0,   0,   0,   0, 1209, 1200, 1200, 1200, -114, ANGLE_MODE, SMALL_ANGLE, IDLE, 1, 1
164, 13126414,  -2,   0,   5,   0,   0,   0,  -3,  -2,   0,   4,  -1,  -1, 1000, 1.090, 34.450, 225,   2,   0,  -2, -66, 425, 2073,   0,   0,   0,   0, 1207, 1201, 1200, 1201, -114, ANGLE_MODE, SMALL_ANGLE, IDLE, 1, 1
165, 13127429,  -1,   0,   3,   0,   0,   0,  -2,  -3,   0,   4,  -1,  -1, 1000, 1.090, 34.450, 225,   2,   0,  -1, -66, 426, 2072,   0,   0,   0,   0, 1203, 1203, 1200, 1202, -115, ANGLE_MODE, SMALL_ANGLE, IDLE, 1, 1
166, 13128446,  -1,   0,   2,   0,   0,   0,   0,  -4,   0,   4,  -1,  -1, 1000, 1.090, 34.450, 225,   1,   0,  -1, -66, 426, 2073,   0,   0,   0,   0, 1200, 1203, 1200, 1203, -115, ANGLE_MODE, SMALL_ANGLE, IDLE, 1, 1
167, 13129461,   0,   0,   1,   0,   0,   0,   2,  -4,   0,   4,  -1,  -1, 1000, 1.090, 34.450, 225,   1,   0,  -1, -66, 426, 2072,   0,   0,   0,   0, 1200, 1201, 1200, 1206, -115, ANGLE_MODE, SMALL_ANGLE, IDLE, 1, 1
168, 13130476,   0,   0,   0,   0,   0,   0,   5,  -4,   0,   4,  -1,  -1, 1000, 1.090, 34.450, 225,   1,   0,   0, -66, 426, 2072,   0,   0,   0,   0, 1200, 1200, 1200, 1208, -115, ANGLE_MODE, SMALL_ANGLE, IDLE, 1, 1
169, 13131483,   0,   0,  -1,   0,   0,   0,   8,  -3,   0,   4,  -1,  -1, 1000, 1.090, 34.450, 225,   0,   0,   1, -66, 425, 2072,   0,   0,   0,   0, 1200, 1200, 1204, 1207, -115, ANGLE_MODE, SMALL_ANGLE, IDLE, 1, 1
170, 13132487,   0,   0,  -4,   0,   0,   0,   8,  -1,   0,   4,  -1,  -1, 1000, 1.090, 34.450, 225,   0,   0,   2, -66, 425, 2072,   0,   0,   0,   0, 1200, 1200, 1208, 1204, -115, ANGLE_MODE, SMALL_ANGLE, IDLE, 1, 1
171, 13133498,   0,   0,  -8,   0,   0,   0,   6,   0,   0,   4,  -1,  -1, 1000, 1.090, 34.450, 225,   1,   0,   3, -67, 424, 2072,   0,   0,   0,   0, 1200, 1202, 1210, 1200, -115, ANGLE_MODE, SMALL_ANGLE, IDLE, 1, 1
172, 13134506,   0,   0,  -9,   0,   0,   0,   3,   1,   0,   4,  -1,  -1, 1000, 1.090, 34.450, 225,   1,   0,   3, -67, 424, 2071,   0,   0,   0,   0, 1200, 1203, 1210, 1200, -115, ANGLE_MODE, SMALL_ANGLE, IDLE, 1, 1
173, 13135510,   0,   0, -10,   0,   0,   0,   0,   2,   0,   4,  -1,  -1, 1000, 1.090, 34.450, 225,   0,   0,   4, -67, 424, 2071,   0,   0,   0,   0, 1200, 1204, 1210, 1200, -115, ANGLE_MODE, SMALL_ANGLE, IDLE, 1, 1
174, 13136510,   1,   0,  -9,   0,   0,   0,   0,   3,   0,   4,  -1,  -1, 1000, 1.090, 34.450, 225,   0,   0,   3, -67, 424, 2071,   0,   0,   0,   0, 1200, 1203, 1210, 1200, -115, ANGLE_MODE, SMALL_ANGLE, IDLE, 1, 1
175, 13137521,   1,   0,  -7,   0,   0,   0,   1,   3,   0,   4,  -1,  -1, 1000, 1.090, 34.450, 225,  -1,  -1,   3, -66, 424, 2070,   0,   0,   0,   0, 1200, 1200, 1211, 1200, -115, ANGLE_MODE, SMALL_ANGLE, IDLE, 1, 1
176, 13138533,   2,   1,  -5,   0,   0,   0,   4,   3,   0,   4,  -1,  -1, 1000, 1.090, 34.450, 225,  -1,  -1,   2, -66, 424, 2069,   0,   0,   0,   0, 1200, 1200, 1212, 1200, -115, ANGLE_MODE, SMALL_ANGLE, IDLE, 1, 1
177, 13139545,   2,   1,  -4,   0,   0,   0,   7,   3,   0,   4,  -1,  -1, 1000, 1.090, 34.450, 225,  -1,  -1,   2, -66, 424, 2069,   0,   0,   0,   0, 1200, 1200, 1214, 1200, -115, ANGLE_MODE, SMALL_ANGLE, IDLE, 1, 1
178, 13140552,   2,   1,  -5,   0,   0,   0,   7,   3,   0,   4,  -1,  -1, 1000, 1.090, 34.450, 225,  -1,  -1,   2, -65, 424, 2069,   0,   0,   0,   0, 1200, 1200, 1215, 1200, -115, ANGLE_MODE, SMALL_ANGLE, IDLE, 1, 1
179, 13141559,   2,   1,  -6,   0,   0,   0,   6,   3,   0,   4,  -1,   0, 1000, 1.090, 34.450, 225,  -1,  -1,   2, -64, 424, 2069,   0,   0,   0,   0, 1200, 1200, 1214, 1200, -115, ANGLE_MODE, SMALL_ANGLE, IDLE, 1, 1
180, 13142579,   1,   1,  -4,   0,   0,   0,   3,   2,   0,   4,  -1,   0, 1000, 1.090, 34.450, 225,   0,  -1,   2, -63, 423, 2069,   0,   0,   0,   0, 1200, 1200, 1209, 1200, -115, ANGLE_MODE, SMALL_ANGLE, IDLE, 1, 1
181, 13143587,   1,   0,  -2,   0,   0,   0,   0,   0,   0,   4,  -1,   0, 1000, 1.090, 34.450, 225,   0,  -1,   1, -63, 423, 2068,   0,   0,   0,   0, 1200, 1201, 1203, 1200, -115, ANGLE_MODE, SMALL_ANGLE, IDLE, 1, 1
182, 13144602,   1,   0,  -1,   0,   0,   0,  -4,  -1,   0,   4,  -1,   0, 1000, 1.090, 34.450, 225,   0,   0,   0, -62, 423, 2068,   0,   0,   0,   0, 1200, 1204, 1200, 1200, -115, ANGLE_MODE, SMALL_ANGLE, IDLE, 1, 1
183, 13145612,   1,   0,  -1,   0,   0,   0,  -5,  -3,   0,   4,  -1,   0, 1000, 1.090, 34.450, 225,   0,   0,   0, -61, 423, 2068,   0,   0,   0,   0, 1200, 1206, 1200, 1200, -115, ANGLE_MODE, SMALL_ANGLE, IDLE, 1, 1
184, 13146618,   0,   0,   0,   0,   0,   0,  -5,  -4,   0,   4,  -1,   0, 1000, 1.090, 34.450, 225,   0,   0,   0, -61, 423, 2069,   0,   0,   0,   0, 1200, 1207, 1200, 1200, -115, ANGLE_MODE, SMALL_ANGLE, IDLE, 1, 1
185, 13147637,   0,   0,   0,   0,   0,   0,  -5,  -5,   0,   4,  -1,   0, 1000, 1.090, 34.450, 225,   1,   0,   0, -60, 422, 2069,   0,   0,   0,   0, 1200, 1209, 1200, 1200, -115, ANGLE_MODE, SMALL_ANGLE, IDLE, 1, 1
186, 13148642,  -1,   0,  -1,   0,   0,   0,  -5,  -5,   0,   4,  -1,   0, 1000, 1.090, 34.450, 225,   1,   0,   1, -59, 421, 2068,   0,   0,   0,   0, 1200, 1210, 1200, 1200, -115, ANGLE_MODE, SMALL_ANGLE, IDLE, 1, 1
187, 13149651,  -1,   0,   0,   0,   0,   0,  -7,  -4,   0,   4,  -1,   0, 1000, 1.090, 34.450, 225,   2,   0,   0, -59, 421, 2068,   0,   0,   0,   0, 1203, 1210, 1200, 1200, -115, ANGLE_MODE, SMALL_ANGLE, IDLE, 1, 1
188, 13150658,  -2,   0,   1,   0,   0,   0,  -8,  -3,   0,   4,  -1,   0, 1000, 1.090, 34.450, 225,   3,   0,  -1, -59, 421, 2068,   0,   0,   0,   0, 1206, 1210, 1200, 1200, -115, ANGLE_MODE, SMALL_ANGLE, IDLE, 1, 1
189, 13151668,  -2,   0,   4,   0,   0,   0,  -9,  -2,   0,   4,  -1,   0, 1000, 1.090, 34.450, 225,   2,   0,  -2, -59, 420, 2067,   0,   0,   0,   0, 1210, 1208, 1200, 1200, -115, ANGLE_MODE, SMALL_ANGLE, IDLE, 1, 1
190, 13152678,  -1,   0,   5,   0,   0,   0,  -8,   0,   0,   4,  -1,   0, 1000, 1.090, 34.450, 225,   2,   0,  -2, -59, 421, 2067,   0,   0,   0,   0, 1210, 1203, 1200, 1200, -115, ANGLE_MODE, SMALL_ANGLE, IDLE, 1, 1
191, 13153692,   0,   0,   6,   0,   0,   0,  -3,   1,   0,   4,  -1,   0, 1000, 1.090, 34.450, 225,   1,   0,  -2, -57, 421, 2068,   0,   0,   0,   0, 1208, 1200, 1200, 1201, -115, ANGLE_MODE, SMALL_ANGLE, IDLE, 1, 1
192, 13154712,   0,   0,   5,   0,   0,   0,   2,   2,   0,   4,  -1,   0, 1000, 1.090, 34.450, 225,   0,   0,  -2, -57, 421, 2068,   0,   0,   0,   0, 1204, 1200, 1200, 1205, -115, ANGLE_MODE, SMALL_ANGLE, IDLE, 1, 1
193, 13155721,   1,   0,   5,   0,   0,   0,   8,   3,   0,   4,  -1,   0, 1000, 1.090, 34.450, 225,   0,  -1,  -2, -56, 420, 2068,   0,   0,   0,   0, 1200, 1200, 1205, 1208, -115, ANGLE_MODE, SMALL_ANGLE, IDLE, 1, 1
194, 13156738,   1,   1,   4,   0,   0,   0,  11,   3,   0,   4,  -1,   0, 1000, 1.090, 34.450, 225,  -1,  -1,  -2, -55, 420, 2068,   0,   0,   0,   0, 1200, 1200, 1209, 1209, -115, ANGLE_MODE, SMALL_ANGLE, IDLE, 1, 1
195, 13157751,   0,   0,   3,   0,   0,   0,  11,   3,   0,   4,  -1,   0, 1000, 1.090, 34.450, 225,   0,  -1,  -1, -54, 420, 2068,   0,   0,   0,   0, 1200, 1200, 1209, 1208, -115, ANGLE_MODE, SMALL_ANGLE, IDLE, 1, 1
196, 13158765,   0,   0,   2,   0,   0,   0,   7,   3,   0,   4,  -1,   0, 1000, 1.090, 34.450, 225,   1,  -1,  -1, -53, 420, 2068,   0,   0,   0,   0, 1200, 1200, 1206, 1204, -115, ANGLE_MODE, SMALL_ANGLE, IDLE, 1, 1
197, 13159767,   0,   0,   1,   0,   0,   0,   2,   2,   0,   4,  -1,   0, 1000, 1.090, 34.450, 225,   1,  -1,  -1, -53, 419, 2069,   0,   0,   0,   0, 1203, 1200, 1202, 1200, -115, ANGLE_MODE, SMALL_ANGLE, IDLE, 1, 1
198, 13160774,  -1,   0,   0,   0,   0,   0,  -3,   1,   0,   4,  -1,   0, 1000, 1.090, 34.450, 225,   1,   0,   0, -52, 418, 2069,   0,   0,   0,   0, 1204, 1202, 1200, 1200, -115, ANGLE_MODE, SMALL_ANGLE, IDLE, 1, 1
199, 13161794,  -2,   0,  -2,   0,   0,   0,  -7,  -1,   0,   4,  -1,   0, 1000, 1.090, 34.450, 225,   2,   0,   1, -51, 418, 2070,   0,   0,   0,   0, 1204, 1210, 1200, 1200, -115, ANGLE_MODE, SMALL_ANGLE, IDLE, 1, 1
200, 13162804,  -2,   0,  -3,   0,   0,   0,  -9,  -3,   0,   4,  -1,   0, 1000, 1.090, 34.450, 225,   2,   0,   1, -50, 417, 2069,   0,   0,   0,   0, 1204, 1214, 1200, 1200, -115, ANGLE_MODE, SMALL_ANGLE, IDLE, 1, 1
201, 13163813,  -2,   0,  -1,   0,   0,   0,  -9,  -4,   0,   4,  -1,   0, 1000, 1.090, 34.450, 225,   2,   0,   0, -49, 417, 2069,   0,   0,   0,   0, 1204, 1213, 1200, 1200, -115, ANGLE_MODE, SMALL_ANGLE, IDLE, 1, 1
202, 13164817,  -2,  -1,   1,   0,   0,   0,  -8,  -4,   0,   4,  -1,   0, 1000, 1.090, 34.450, 225,   2,   1,  -1, -48, 416, 2068,   0,   0,   0,   0, 1204, 1210, 1200, 1200, -115, ANGLE_MODE, SMALL_ANGLE, IDLE, 1, 1
203, 13165831,  -1,  -1,   1,   0,   0,   0,  -4,  -4,   0,   4,  -1,   0, 1000, 1.090, 34.450, 225,   1,   1,   0, -48, 416, 2067,   0,   0,   0,   0, 1201, 1207, 1200, 1201, -115, ANGLE_MODE, SMALL_ANGLE, IDLE, 1, 1
204, 13166835,   0,  -1,   1,   0,   0,   0,   0,  -3,   0,   4,  -1,   0, 1000, 1.090, 34.450, 225,   1,   1,  -1, -48, 416, 2066,   0,   0,   0,   0, 1200, 1202, 1200, 1205, -115, ANGLE_MODE, SMALL_ANGLE, IDLE, 1, 1
205, 13167841,   0,  -1,   2,   0,   0,   0,   5,  -2,   0,   4,  -1,   0, 1000, 1.090, 34.450, 225,   1,   1,  -1, -48, 416, 2066,   0,   0,   0,   0, 1200, 1200, 1200, 1208, -115, ANGLE_MODE, SMALL_ANGLE, IDLE, 1, 1
206, 13168848,   0,  -1,   0,   0,   0,   0,   7,  -2,   0,   4,  -1,   0, 1000, 1.090, 34.450, 225,   1,   1,   0, -47, 417, 2065,   0,   0,   0,   0, 1200, 1200, 1202, 1209, -115, ANGLE_MODE, SMALL_ANGLE, IDLE, 1, 1
207, 13169866,   0,  -1,   1,   0,   0,   0,   7,  -1,   0,   4,  -1,   0, 1000, 1.090, 34.450, 225,   0,   1,   0, -47, 417, 2065,   0,   0,   0,   0, 1200, 1200, 1202, 1209, -115, ANGLE_MODE, SMALL_ANGLE, IDLE, 1, 1
208, 13170876,   0,  -1,   1,   0,   0,   0,   6,  -1,   0,   4,  -1,   0, 1000, 1.090, 34.450, 225,   0,   1,  -1, -48, 417, 2065,   0,   0,   0,   0, 1200, 1200, 1202, 1207, -115, ANGLE_MODE, SMALL_ANGLE, IDLE, 1, 1
209, 13171887,   0,  -1,   2,   0,   0,   0,   4,   0,   0,   4,  -1,   0, 1000, 1.090, 34.450, 225,   1,   1,  -1, -48, 417, 2064,   0,   0,   0,   0, 1200, 1200, 1200, 1205, -115, ANGLE_MODE, SMALL_ANGLE, IDLE, 1, 1
210, 13172899,   0,   0,   3,   0,   0,   0,   1,   0,   0,   4,  -1,   0, 1000, 1.090, 34.450, 225,   1,   1,  -1, -47, 418, 2064,   0,   0,   0,   0, 1201, 1200, 1200, 1204, -115, ANGLE_MODE, SMALL_ANGLE, IDLE, 1, 1
211, 13173912,   0,   0,   2,   0,   0,   0,   0,   1,   0,   4,  -1,   0, 1000, 1.090, 34.450, 225,   1,   0,  -1, -47, 418, 2064,   0,   0,   0,   0, 1203, 1200, 1200, 1201, -115, ANGLE_MODE, SMALL_ANGLE, IDLE, 1, 1
212, 13174923,  -1,   0,   2,   0,   0,   0,  -1,   2,   0,   4,  -1,   0, 1000, 1.090, 34.450, 225,   1,   0,  -1, -48, 417, 2064,   0,   0,   0,   0, 1205, 1200, 1200, 1200, -115, ANGLE_MODE, SMALL_ANGLE, IDLE, 1, 1
213, 13175934,  -1,   0,   3,   0,   0,   0,  -3,   2,   0,   4,  -1,   0, 1000, 1.090, 34.450, 225,   2,   0,  -1, -48, 417, 2064,   0,   0,   0,   0, 1207, 1200, 1200, 1200, -115, ANGLE_MODE, SMALL_ANGLE, IDLE, 1, 1
214, 13176947,  -1,  -1,   3,   0,   0,   0,  -5,   2,   0,   4,  -1,   0, 1000, 1.090, 34.450, 225,   2,   1,  -1, -48, 416, 2064,   0,   0,   0,   0, 1208, 1202, 1200, 1200, -115, ANGLE_MODE, SMALL_ANGLE, IDLE, 1, 1
215, 13177961,  -1,  -2,   1,   0,   0,   0,  -5,   0,   0,   4,  -1,   0, 1000, 1.090, 34.450, 225,   2,   1,  -1, -48, 416, 2064,   0,   0,   0,   0, 1204, 1206, 1200, 1200, -115, ANGLE_MODE, SMALL_ANGLE, IDLE, 1, 1
216, 13178961,  -1,  -2,   0,   0,   0,   0,  -4,  -3,   0,   4,  -1,   0, 1000, 1.090, 34.450, 225,   1,   2,   0, -48, 416, 2063,   0,   0,   0,   0, 1200, 1210, 1200, 1200, -115, ANGLE_MODE, SMALL_ANGLE, IDLE, 1, 1
217, 13179978,  -1,  -3,  -1,   0,   0,   0,  -2,  -6,   0,   4,  -1,   0, 1000, 1.090, 34.450, 225,   1,   2,   0, -47, 416, 2063,   0,   0,   0,   0, 1200, 1211, 1200, 1204, -115, ANGLE_MODE, SMALL_ANGLE, IDLE, 1, 1
218, 13180991,   0,  -3,  -2,   0,   0,   0,   0,  -8,   0,   4,  -1,   0, 1000, 1.090, 34.450, 225,   1,   2,   1, -47, 415, 2063,   0,   0,   0,   0, 1200, 1211, 1200, 1206, -115, ANGLE_MODE, SMALL_ANGLE, IDLE, 1, 1
219, 13181993,   0,  -3,  -3,   0,   0,   0,   1,  -8,   0,   3,   0,   0, 1000, 1.090, 34.450, 225,   1,   2,   1, -47, 415, 2064,   0,   0,   0,   0, 1200, 1210, 1200, 1207, -115, ANGLE_MODE, SMALL_ANGLE, IDLE, 1, 1
220, 13183004,  -1,  -3,  -3,   0,   0,   0,   2,  -6,   0,   3,   0,   0, 1000, 1.099, 34.450, 225,   1,   2,   1, -47, 415, 2063,   0,   0,   0,   0, 1200, 1209, 1200, 1205, -115, ANGLE_MODE, SMALL_ANGLE, IDLE, 1, 1
221, 13184013,   0,  -3,  -3,   0,   0,   0,   2,  -3,   0,   3,   0,   0, 1000, 1.099, 34.450, 225,   1,   2,   1, -47, 416, 2063,   0,   0,   0,   0, 1200, 1207, 1200, 1203, -115, ANGLE_MODE, SMALL_ANGLE, IDLE, 1, 1
222, 13185021,   0,  -3,  -6,   0,   0,   0,   2,  -1,   0,   3,   0,   0, 1000, 1.099, 34.450, 225,   1,   2,   2, -46, 416, 2063,   0,   0,   0,   0, 1200, 1206, 1203, 1200, -115, ANGLE_MODE, SMALL_ANGLE, IDLE, 1, 1
223, 13186036,   0,  -2,  -7,   0,   0,   0,   2,   0,   0,   3,   0,   0, 1000, 1.099, 34.450, 225,   1,   2,   3, -46, 417, 2063,   0,   0,   0,   0, 1200, 1205, 1205, 1200, -115, ANGLE_MODE, SMALL_ANGLE, IDLE, 1, 1
224, 13187044,   0,  -2,  -8,   0,   0,   0,   3,   1,   0,   3,   0,   0, 1000, 1.099, 34.450, 225,   0,   2,   3, -47, 417, 2062,   0,   0,   0,   0, 1200, 1204, 1208, 1200, -115, ANGLE_MODE, SMALL_ANGLE, IDLE, 1, 1
225, 13188053,   1,  -1,  -7,   0,   0,   0,   4,   3,   0,   3,   0,   0, 1000, 1.099, 34.450, 225,   0,   1,   3, -47, 417, 2062,   0,   0,   0,   0, 1200, 1200, 1210, 1200, -115, ANGLE_MODE, SMALL_ANGLE, IDLE, 1, 1
226, 13189061,   1,  -1,  -5,   0,   0,   0,   5,   5,   0,   3,   0,   0, 1000, 1.099, 34.450, 225,  -1,   1,   2, -46, 417, 2062,   0,   0,   0,   0, 1200, 1200, 1212, 1200, -115, ANGLE_MODE, SMALL_ANGLE, IDLE, 1, 1
227, 13190073,   1,   0,  -3,   0,   0,   0,   5,   6,   0,   3,   0,   0, 1000, 1.099, 34.450, 225,   0,   0,   1, -46, 417, 2062,   0,   0,   0,   0, 1200, 1200, 1212, 1200, -115, ANGLE_MODE, SMALL_ANGLE, IDLE, 1, 1
228, 13191081,   0,   0,   0,   0,   0,   0,   4,   7,   0,   3,   0,   0, 1000, 1.099, 34.450, 225,   0,   0,   0, -47, 417, 2062,   0,   0,   0,   0, 1200, 1200, 1210, 1200, -115, ANGLE_MODE, SMALL_ANGLE, IDLE, 1, 1
229, 13192090,   0,   0,   0,   0,   0,   0,   1,   7,   0,   3,   0,   0, 1000, 1.099, 34.450, 225,   0,   0,   0, -47, 416, 2063,   0,   0,   0,   0, 1203, 1200, 1206, 1200, -115, ANGLE_MODE, SMALL_ANGLE, IDLE, 1, 1
230, 13193092,   0,  -1,   2,   0,   0,   0,  -2,   5,   0,   3,   0,   0, 1000, 1.099, 34.450, 225,   1,   1,  -1, -47, 416, 2062,   0,   0,   0,   0, 1206, 1200, 1200, 1200, -115, ANGLE_MODE, SMALL_ANGLE, IDLE, 1, 1
231, 13194103,  -1,  -1,   2,   0,   0,   0,  -6,   1,   0,   3,   0,   0, 1000, 1.099, 34.450, 225,   1,   1,  -1, -47, 415, 2062,   0,   0,   0,   0, 1206, 1204, 1200, 1200, -115, ANGLE_MODE, SMALL_ANGLE, IDLE, 1, 1
232, 13195110,  -1,  -2,   2,   0,   0,   0,  -8,  -2,   0,   3,   0,   0, 1000, 1.099, 34.450, 225,   1,   2,  -1, -47, 415, 2062,   0,   0,   0,   0, 1205, 1209, 1200, 1200, -115, ANGLE_MODE, SMALL_ANGLE, IDLE, 1, 1
233, 13196118,  -1,  -2,   3,   0,   0,   0,  -7,  -5,   0,   3,   0,   0, 1000, 1.099, 34.450, 225,   1,   2,  -1, -47, 415, 2063,   0,   0,   0,   0, 1202, 1211, 1200, 1202, -115, ANGLE_MODE, SMALL_ANGLE, IDLE, 1, 1
234, 13197119,  -1,  -3,   2,   0,   0,   0,  -5,  -7,   0,   3,   0,   0, 1000, 1.099, 34.450, 225,   1,   2,  -1, -46, 415, 2064,   0,   0,   0,   0, 1200, 1211, 1200, 1204, -115, ANGLE_MODE, SMALL_ANGLE, IDLE, 1, 1
235, 13198135,   0,  -3,   0,   0,   0,   0,  -2,  -7,   0,   3,   0,   0, 1000, 1.099, 34.450, 225,   1,   2,   0, -45, 415, 2064,   0,   0,   0,   0, 1200, 1211, 1200, 1205, -115, ANGLE_MODE, SMALL_ANGLE, IDLE, 1, 1
236, 13199145,   0,  -3,  -2,   0,   0,   0,   0,  -6,   0,   3,   0,   0, 1000, 1.099, 34.450, 225,   1,   2,   1, -46, 415, 2065,   0,   0,   0,   0, 1200, 1209, 1200, 1204, -115, ANGLE_MODE, SMALL_ANGLE, IDLE, 1, 1
237, 13200151,   0,  -3,  -4,   0,   0,   0,   1,  -4,   0,   3,   0,   0, 1000, 1.099, 34.450, 225,   1,   2,   2, -46, 416, 2065,   0,   0,   0,   0, 1200, 1208, 1200, 1204, -115, ANGLE_MODE, SMALL_ANGLE, IDLE, 1, 1
238, 13201162,   0,  -3,  -5,   0,   0,   0,   3,  -2,   0,   3,   0,   0, 1000, 1.099, 34.450, 225,   0,   2,   2, -45, 417, 2066,   0,   0,   0,   0, 1200, 1206, 1201, 1203, -115, ANGLE_MODE, SMALL_ANGLE, IDLE, 1, 1
239, 13202164,   0,  -2,  -5,   0,   0,   0,   4,   0,   0,   3,   0,   0, 1000, 1.099, 34.450, 225,   0,   2,   2, -45, 418, 2066,   0,   0,   0,   0, 1200, 1203, 1205, 1202, -115, ANGLE_MODE, SMALL_ANGLE, IDLE, 1, 1
240, 13203164,   0,  -2,  -3,   0,   0,   0,   5,   0,   0,   3,   0,   0, 1000, 1.099, 34.450, 225,   0,   2,   1, -46, 418, 2067,   0,   0,   0,   0, 1200, 1200, 1205, 1203, -115, ANGLE_MODE, SMALL_ANGLE, IDLE, 1, 1
241, 13204171,   0,  -1,   0,   0,   0,   0,   5,   2,   0,   3,   0,   0, 1000, 1.099, 34.450, 225,   0,   1,   0, -46, 418, 2067,   0,   0,   0,   0, 1200, 1200, 1205, 1203, -115, ANGLE_MODE, SMALL_ANGLE, IDLE, 1, 1
242, 13205178,   0,  -1,   2,   0,   0,   0,   4,   5,   0,   3,   0,   0, 1000, 1.099, 34.450, 225,   0,   1,  -1, -46, 419, 2067,   0,   0,   0,   0, 1202, 1200, 1204, 1202, -115, ANGLE_MODE, SMALL_ANGLE, IDLE, 1, 1
243, 13206193,   0,   0,   4,   0,   0,   0,   2,   7,   0,   3,   0,   0, 1000, 1.099, 34.450, 225,   1,   0,  -2, -47, 419, 2068,   0,   0,   0,   0, 1206, 1200, 1203, 1200, -115, ANGLE_MODE, SMALL_ANGLE, IDLE, 1, 1
244, 13207199,   0,   0,   5,   0,   0,   0,   0,   8,   0,   3,   0,   0, 1000, 1.099, 34.450, 225,   1,   0,  -2, -49, 418, 2068,   0,   0,   0,   0, 1211, 1200, 1201, 1200, -115, ANGLE_MODE, SMALL_ANGLE, IDLE, 1, 1
245, 13208205,  -1,   0,   5,   0,   0,   0,  -3,   8,   0,   3,   0,   0, 1000, 1.099, 34.450, 225,   1,   0,  -2, -50, 418, 2069,   0,   0,   0,   0, 1213, 1200, 1200, 1200, -115, ANGLE_MODE, SMALL_ANGLE, IDLE, 1, 1
246, 13209212,  -1,  -1,   5,   0,   0,   0,  -5,   5,   0,   3,   0,   0, 1000, 1.099, 34.450, 225,   1,   1,  -2, -51, 417, 2070,   0,   0,   0,   0, 1212, 1200, 1200, 1200, -115, ANGLE_MODE, SMALL_ANGLE, IDLE, 1, 1
247, 13210220,   0,  -1,   5,   0,   0,   0,  -5,   2,   0,   3,   0,   0, 1000, 1.099, 34.450, 225,   1,   1,  -2, -51, 416, 2070,   0,   0,   0,   0, 1209, 1200, 1200, 1200, -115, ANGLE_MODE, SMALL_ANGLE, IDLE, 1, 1
248, 13211225,  -1,  -2,   6,   0,   0,   0,  -3,  -2,   0,   3,   0,   0, 1000, 1.099, 34.450, 225,   1,   2,  -2, -52, 416, 2070,   0,   0,   0,   0, 1205, 1202, 1200, 1204, -115, ANGLE_MODE, SMALL_ANGLE, IDLE, 1, 1
249, 13212241,  -1,  -2,   6,   0,   0,   0,  -2,  -5,   0,   3,   0,   0, 1000, 1.099, 34.450, 225,   1,   2,  -2, -52, 415, 2071,   0,   0,   0,   0, 1201, 1204, 1200, 1208, -115, ANGLE_MODE, SMALL_ANGLE, IDLE, 1, 1
250, 13213253,   0,  -2,   4,   0,   0,   0,   0,  -7,   0,   3,   0,   0, 1000, 1.099, 34.450, 225,   1,   2,  -2, -52, 415, 2072,   0,   0,   0,   0, 1200, 1204, 1200, 1210, -115, ANGLE_MODE, SMALL_ANGLE, IDLE, 1, 1
251, 13214262,   0,  -2,   3,   0,   0,   0,   0,  -7,   0,   3,   0,   0, 1000, 1.099, 34.450, 225,   1,   2,  -1, -51, 415, 2073,   0,   0,   0,   0, 1200, 1204, 1200, 1210, -115, ANGLE_MODE, SMALL_ANGLE, IDLE, 1, 1
252, 13215278,   0,  -2,   3,   0,   0,   0,   1,  -5,   0,   3,   0,   0, 1000, 1.099, 34.450, 225,   1,   2,  -1, -52, 416, 2073,   0,   0,   0,   0, 1200, 1203, 1200, 1209, -115, ANGLE_MODE, SMALL_ANGLE, IDLE, 1, 1
253, 13216280,   0,  -2,   2,   0,   0,   0,   2,  -3,   0,   3,   0,   0, 1000, 1.099, 34.450, 225,   0,   2,  -1, -52, 416, 2074,   0,   0,   0,   0, 1200, 1201, 1200, 1209, -115, ANGLE_MODE, SMALL_ANGLE, IDLE, 1, 1
254, 13217295,   0,  -2,   0,   0,   0,   0,   3,  -1,   0,   3,   0,   0, 1000, 1.099, 34.450, 225,   0,   2,   0, -52, 417, 2074,   0,   0,   0,   0, 1200, 1200, 1200, 1206, -115, ANGLE_MODE, SMALL_ANGLE, IDLE, 1, 1
255, 13218310,   0,  -2,  -1,   0,   0,   0,   3,   0,   0,   3,   0,   0, 1000, 1.099, 34.450, 225,   0,   1,   1, -52, 418, 2075,   0,   0,   0,   0, 1200, 1200, 1203, 1203, -115, ANGLE_MODE, SMALL_ANGLE, IDLE, 1, 1
256, 13219316,   0,  -1,  -4,   0,   0,   0,   4,   2,   0,   3,   0,   0, 1000, 1.099, 34.450, 225,   0,   1,   2, -52, 418, 2074,   0,   0,   0,   0, 1200, 1200, 1207, 1200, -115, ANGLE_MODE, SMALL_ANGLE, IDLE, 1, 1
257, 13220320,   0,   0,  -4,   0,   0,   0,   3,   5,   0,   3,   0,   0, 1000, 1.099, 34.450, 225,   0,   0,   2, -53, 418, 2074,   0,   0,   0,   0, 1200, 1200, 1209, 1200, -115, ANGLE_MODE, SMALL_ANGLE, IDLE, 1, 1
258, 13221328,   0,   0,  -3,   0,   0,   0,   2,   7,   0,   3,   0,   0, 1000, 1.099, 34.450, 225,   0,   0,   1, -54, 418, 2075,   0,   0,   0,   0, 1201, 1200, 1209, 1200, -115, ANGLE_MODE, SMALL_ANGLE, IDLE, 1, 1
259, 13222343,   0,   0,  -2,   0,   0,   0,   0,   9,   0,   3,   0,  -1, 1000, 1.099, 34.450, 225,   0,  -1,   1, -55, 417, 2075,   0,   0,   0,   0, 1205, 1200, 1210, 1200, -115, ANGLE_MODE, SMALL_ANGLE, IDLE, 1, 1
260, 13223350,   0,   1,  -1,   0,   0,   0,   0,   9,   0,   3,   0,  -1, 1000, 1.090, 34.275, 225,   0,  -1,   0, -57, 417, 2075,   0,   0,   0,   0, 1207, 1200, 1209, 1200, -115, ANGLE_MODE, SMALL_ANGLE, IDLE, 1, 1
261, 13224358,   0,   0,   0,   0,   0,   0,   0,   8,   0,   3,   0,  -1, 1000, 1.090, 34.275, 225,   1,  -1,   0, -58, 416, 2075,   0,   0,   0,   0, 1208, 1200, 1205, 1200, -115, ANGLE_MODE, SMALL_ANGLE, IDLE, 1, 1
262, 13225363,  -1,   0,   0,   0,   0,   0,  -2,   6,   0,   3,   0,  -1, 1000, 1.090, 34.275, 225,   1,   0,   0, -59, 415, 2075,   0,   0,   0,   0, 1208, 1200, 1201, 1200, -115, ANGLE_MODE, SMALL_ANGLE, IDLE, 1, 1
263, 13226374,  -2,   0,   1,   0,   0,   0,  -5,   2,   0,   3,   0,  -1, 1000, 1.090, 34.275, 225,   2,   0,  -1, -60, 414, 2076,   0,   0,   0,   0, 1208, 1203, 1200, 1200, -115, ANGLE_MODE, SMALL_ANGLE, IDLE, 1, 1
264, 13227390,  -3,   0,   2,   0,   0,   0,  -8,  -2,   0,   3,   0,  -1, 1000, 1.090, 34.275, 225,   3,   1,  -1, -60, 414, 2075,   0,   0,   0,   0, 1209, 1209, 1200, 1200, -115, ANGLE_MODE, SMALL_ANGLE, IDLE, 1, 1
265, 13228390,  -4,  -1,   1,   0,   0,   0, -12,  -5,   0,   3,   0,  -1, 1000, 1.090, 34.275, 225,   4,   1,  -1, -61, 414, 2075,   0,   0,   0,   0, 1209, 1216, 1200, 1200, -115, ANGLE_MODE, SMALL_ANGLE, IDLE, 1, 1
266, 13229399,  -5,  -1,   0,   0,   0,   0, -14,  -7,   0,   3,   0,  -1, 1000, 1.090, 34.275, 225,   4,   1,   0, -61, 414, 2076,   0,   0,   0,   0, 1207, 1221, 1200, 1200, -115, ANGLE_MODE, SMALL_ANGLE, IDLE, 1, 1
267, 13230402,  -5,  -1,  -3,   0,   0,   0, -14,  -7,   0,   3,   0,  -1, 1000, 1.090, 34.275, 225,   4,   1,   1, -61, 414, 2076,   0,   0,   0,   0, 1205, 1223, 1200, 1200, -115, ANGLE_MODE, SMALL_ANGLE, IDLE, 1, 1
268, 13231412,  -5,  -2,  -6,   0,   0,   0, -12,  -6,   0,   3,   0,  -1, 1000, 1.090, 34.275, 225,   4,   1,   2, -60, 415, 2076,   0,   0,   0,   0, 1201, 1223, 1200, 1200, -115, ANGLE_MODE, SMALL_ANGLE, IDLE, 1, 1
269, 13232414,  -4,  -2,  -8,   0,   0,   0,  -7,  -5,   0,   3,   0,  -1, 1000, 1.090, 34.275, 225,   4,   1,   3, -60, 415, 2076,   0,   0,   0,   0, 1200, 1220, 1200, 1200, -115, ANGLE_MODE, SMALL_ANGLE, IDLE, 1, 1
270, 13233429,  -3,  -2,  -6,   0,   0,   0,  -2,  -3,   0,   3,   0,  -1, 1000, 1.090, 34.275, 225,   3,   1,   2, -60, 416, 2076,   0,   0,   0,   0, 1200, 1213, 1200, 1200, -115, ANGLE_MODE, SMALL_ANGLE, IDLE, 1, 1
271, 13234434,  -2,  -1,  -3,   0,   0,   0,   3,  -1,   0,   3,   0,  -1, 1000, 1.090, 34.275, 225,   2,   1,   1, -61, 417, 2076,   0,   0,   0,   0, 1200, 1205, 1200, 1200, -115, ANGLE_MODE, SMALL_ANGLE, IDLE, 1, 1
