loopIteration, time (us), axisP[0], axisP[1], axisP[2], axisI[0], axisI[1], axisI[2], axisD[0], axisD[1], axisD[2], rcCommand[0], rcCommand[1], rcCommand[2], rcCommand[3], vbatLatest (V), amperageLatest (A), rssi, gyroADC[0], gyroADC[1], gyroADC[2], accSmooth[0], accSmooth[1], accSmooth[2], debug[0], debug[1], debug[2], debug[3], motor[0], motor[1], motor[2], motor[3], energyCumulative (mAh), flightModeFlags (flags), stateFlags (flags), failsafePhase (flags), rxSignalReceived, rxFlightChannelsValid
  0, 67410131,   2,   4,   5,   0,   0,   0,   1,  -4,   0,   9,   1,   3, 1000, 1.072, 34.175, 225,   0,  -3,  -2, -103, 575, 2027,   0,   0,   0,   0, 1201, 1200, 1200, 1207, -111200, ANGLE_MODE, SMALL_ANGLE, IDLE, 1, 1
  1, 67411150,   3,   3,   4,   0,   0,   0,   4,  -6,   0,  10,   1,   3, 1000, 1.072, 34.025, 225,  -1,  -2,  -1, -103, 575, 2026,   0,   0,   0,   0, 1200, 1200, 1200, 1210, -111790, ANGLE_MODE, SMALL_ANGLE, IDLE, 1, 1
  2, 67412166,   3,   2,   2,   0,   0,   0,   5,  -7,   0,  10,   1,   3, 1000, 1.072, 34.025, 225,  -1,  -2,  -1, -103, 574, 2026,   0,   0,   0,   0, 1200, 1200, 1201, 1211, -111790, ANGLE_MODE, SMALL_ANGLE, IDLE, 1, 1
  3, 67413170,   3,   2,   0,   0,   0,   0,   5,  -8,   0,  10,   1,   3, 1000, 1.072, 34.025, 225,  -1,  -1,   0, -104, 573, 2026,   0,   0,   0,   0, 1200, 1200, 1202, 1211, -111790, ANGLE_MODE, SMALL_ANGLE, IDLE, 1, 1
  4, 67414178,   3,   2,  -1,   0,   0,   0,   4,  -8,   0,  10,   1,   3, 1000, 1.072, 34.025, 225,  -1,  -1,   1, -105, 572, 2026,   0,   0,   0,   0, 1200, 1200, 1202, 1209, -111790, ANGLE_MODE, SMALL_ANGLE, IDLE, 1, 1
  5, 67415193,   3,   1,  -3,   0,   0,   0,   3,  -8,   0,  10,   1,   3, 1000, 1.072, 34.025, 225,  -1,  -1,   2, -105, 571, 2025,   0,   0,   0,   0, 1200, 1202, 1203, 1207, -111790, ANGLE_MODE, SMALL_ANGLE, IDLE, 1, 1
  6, 67416209,   3,   1,  -5,   0,   0,   0,   1,  -6,   0,  10,   1,   3, 1000, 1.072, 34.025, 225,  -1,  -1,   2, -106, 570, 2025,   0,   0,   0,   0, 1200, 1203, 1204, 1204, -111790, ANGLE_MODE, SMALL_ANGLE, IDLE, 1, 1
  7, 67417216,   3,   1,  -5,   0,   0,   0,   0,  -5,   0,  10,   1,   3, 1000, 1.072, 34.025, 225,  -1,  -1,   2, -106, 569, 2025,   0,   0,   0,   0, 1200, 1204, 1205, 1201, -111790, ANGLE_MODE, SMALL_ANGLE, IDLE, 1, 1
  8, 67418227,   3,   1,  -5,   0,   0,   0,   0,  -3,   0,  10,   1,   3, 1000, 1.072, 34.025, 225,  -1,  -1,   2, -107, 568, 2026,   0,   0,   0,   0, 1200, 1203, 1205, 1200, -111790, ANGLE_MODE, SMALL_ANGLE, IDLE, 1, 1
  9, 67419241,   3,   1,  -5,   0,   0,   0,   0,  -2,   0,  10,   1,   3, 1000, 1.072, 34.025, 225,  -1,  -1,   2, -107, 567, 2027,   0,   0,   0,   0, 1200, 1203, 1206, 1200, -111790, ANGLE_MODE, SMALL_ANGLE, IDLE, 1, 1
 10, 67420259,   3,   0,  -5,   0,   0,   0,   0,  -2,   0,  10,   1,   3, 1000, 1.072, 34.025, 225,  -1,   0,   2, -107, 566, 2028,   0,   0,   0,   0, 1200, 1202, 1206, 1200, -111790, ANGLE_MODE, SMALL_ANGLE, IDLE, 1, 1
 11, 67421268,   2,   0,  -5,   0,   0,   0,   0,  -2,   0,  10,   1,   3, 1000, 1.072, 34.025, 225,   0,   0,   2, -107, 566, 2029,   0,   0,   0,   0, 1200, 1203, 1205, 1200, -111790, ANGLE_MODE, SMALL_ANGLE, IDLE, 1, 1
 12, 67422277,   2,   0,  -5,   0,   0,   0,  -1,  -1,   0,  11,   1,   3, 1000, 1.072, 34.025, 225,   0,   0,   2, -107, 566, 2029,   0,   0,   0,   0, 1200, 1204, 1204, 1200, -111790, ANGLE_MODE, SMALL_ANGLE, IDLE, 1, 1
 13, 67423288,   2,   0,  -4,   0,   0,   0,  -2,  -1,   0,  11,   1,   3, 1000, 1.072, 34.025, 225,   0,  -1,   2, -107, 565, 2030,   0,   0,   0,   0, 1200, 1203, 1204, 1200, -111790, ANGLE_MODE, SMALL_ANGLE, IDLE, 1, 1
 14, 67424297,   2,   1,  -3,   0,   0,   0,  -3,   0,   0,  11,   1,   3, 1000, 1.072, 34.025, 225,   0,  -1,   2, -106, 565, 2031,   0,   0,   0,   0, 1200, 1203, 1203, 1200, -111790, ANGLE_MODE, SMALL_ANGLE, IDLE, 1, 1
 15, 67425307,   2,   0,  -3,   0,   0,   0,  -3,   0,   0,  11,   1,   3, 1000, 1.072, 34.025, 225,   0,  -1,   1, -106, 566, 2032,   0,   0,   0,   0, 1200, 1202, 1203, 1200, -111790, ANGLE_MODE, SMALL_ANGLE, IDLE, 1, 1
 16, 67426318,   2,   1,  -2,   0,   0,   0,  -3,   1,   0,  11,   1,   3, 1000, 1.072, 34.025, 225,   0,  -1,   1, -105, 566, 2034,   0,   0,   0,   0, 1200, 1200, 1204, 1200, -111790, ANGLE_MODE, SMALL_ANGLE, IDLE, 1, 1
 17, 67427332,   1,   1,  -2,   0,   0,   0,  -2,   1,   0,  11,   1,   3, 1000, 1.072, 34.025, 225,   0,  -1,   1, -104, 567, 2034,   0,   0,   0,   0, 1201, 1200, 1204, 1200, -111790, ANGLE_MODE, SMALL_ANGLE, IDLE, 1, 1
 18, 67428339,   2,   1,  -1,   0,   0,   0,  -2,   1,   0,  11,   1,   3, 1000, 1.072, 34.025, 225,   0,  -1,   1, -103, 567, 2035,   0,   0,   0,   0, 1201, 1200, 1203, 1200, -111790, ANGLE_MODE, SMALL_ANGLE, IDLE, 1, 1
 19, 67429347,   2,   1,   0,   0,   0,   0,  -1,   1,   0,  11,   1,   3, 1000, 1.072, 34.025, 225,   0,  -1,   1, -102, 568, 2035,   0,   0,   0,   0, 1200, 1200, 1203, 1200, -111790, ANGLE_MODE, SMALL_ANGLE, IDLE, 1, 1
 20, 67430357,   2,   2,   0,   0,   0,   0,   0,   1,   0,  11,   1,   3, 1000, 1.072, 34.025, 225,   0,  -1,   0, -101, 569, 2035,   0,   0,   0,   0, 1201, 1200, 1204, 1200, -111790, ANGLE_MODE, SMALL_ANGLE, IDLE, 1, 1
 21, 67431363,   2,   2,   2,   0,   0,   0,   0,   1,   0,  10,   1,   3, 1000, 1.072, 34.025, 225,   0,  -1,   0, -100, 569, 2035,   0,   0,   0,   0, 1201, 1200, 1204, 1201, -111790, ANGLE_MODE, SMALL_ANGLE, IDLE, 1, 1
 22, 67432382,   2,   2,   3,   0,   0,   0,   2,   2,   0,  10,   1,   3, 1000, 1.072, 34.025, 225,   0,  -1,  -1, -99, 570, 2036,   0,   0,   0,   0, 1202, 1200, 1204, 1202, -111790, ANGLE_MODE, SMALL_ANGLE, IDLE, 1, 1
 23, 67433389,   2,   2,   3,   0,   0,   0,   2,   2,   0,  10,   1,   3, 1000, 1.072, 34.025, 225,   0,  -1,  -1, -97, 570, 2037,   0,   0,   0,   0, 1203, 1200, 1204, 1203, -111790, ANGLE_MODE, SMALL_ANGLE, IDLE, 1, 1
 24, 67434396,   2,   2,   3,   0,   0,   0,   2,   2,   0,  10,   1,   3, 1000, 1.072, 34.025, 225,   0,  -1,  -1, -97, 570, 2037,   0,   0,   0,   0, 1202, 1200, 1204, 1203, -111790, ANGLE_MODE, SMALL_ANGLE, IDLE, 1, 1
 25, 67435405,   3,   2,   4,   0,   0,   0,   1,   1,   0,  10,   1,   3, 1000, 1.072, 34.025, 225,  -1,  -1,  -1, -95, 571, 2037,   0,   0,   0,   0, 1202, 1200, 1203, 1204, -111790, ANGLE_MODE, SMALL_ANGLE, IDLE, 1, 1
 26, 67436412,   3,   2,   4,   0,   0,   0,   1,   1,   0,  10,   1,   3, 1000, 1.072, 34.025, 225,  -1,  -1,  -1, -94, 571, 2037,   0,   0,   0,   0, 1202, 1200, 1203, 1205, -111790, ANGLE_MODE, SMALL_ANGLE, IDLE, 1, 1
 27, 67437418,   4,   2,   4,   0,   0,   0,   2,   0,   0,  10,   1,   3, 1000, 1.072, 34.025, 225,  -1,  -1,  -1, -93, 571, 2036,   0,   0,   0,   0, 1200, 1200, 1203, 1207, -111790, ANGLE_MODE, SMALL_ANGLE, IDLE, 1, 1
 28, 67438425,   3,   2,   5,   0,   0,   0,   3,   0,   0,  10,   1,   3, 1000, 1.072, 34.025, 225,  -1,  -1,  -2, -93, 571, 2036,   0,   0,   0,   0, 1200, 1200, 1204, 1208, -111790, ANGLE_MODE, SMALL_ANGLE, IDLE, 1, 1
 29, 67439440,   3,   1,   5,   0,   0,   0,   3,   0,   0,  10,   1,   3, 1000, 1.072, 34.025, 225,  -1,  -1,  -2, -92, 571, 2036,   0,   0,   0,   0, 1200, 1200, 1203, 1208, -111790, ANGLE_MODE, SMALL_ANGLE, IDLE, 1, 1
 30, 67440449,   3,   1,   4,   0,   0,   0,   2,   0,   0,  10,   1,   3, 1000, 1.072, 34.025, 225,  -1,  -1,  -1, -91, 570, 2036,   0,   0,   0,   0, 1200, 1200, 1202, 1207, -111790, ANGLE_MODE, SMALL_ANGLE, IDLE, 1, 1
 31, 67441465,   3,   1,   3,   0,   0,   0,   0,  -1,   0,  10,   1,   3, 1000, 1.072, 34.025, 225,  -1,  -1,  -1, -90, 570, 2036,   0,   0,   0,   0, 1200, 1200, 1201, 1205, -111790, ANGLE_MODE, SMALL_ANGLE, IDLE, 1, 1
 32, 67442473,   3,   1,   3,   0,   0,   0,   0,  -1,   0,  10,   1,   3, 1000, 1.072, 34.025, 225,  -1,  -1,  -1, -90, 569, 2036,   0,   0,   0,   0, 1200, 1200, 1200, 1205, -111790, ANGLE_MODE, SMALL_ANGLE, IDLE, 1, 1
 33, 67443486,   4,   1,   4,   0,   0,   0,   0,  -2,   0,  10,   1,   3, 1000, 1.072, 34.025, 225,  -1,  -1,  -1, -90, 569, 2035,   0,   0,   0,   0, 1200, 1200, 1200, 1206, -111790, ANGLE_MODE, SMALL_ANGLE, IDLE, 1, 1
 34, 67444496,   4,   1,   4,   0,   0,   0,   0,  -2,   0,  10,   1,   3, 1000, 1.072, 34.025, 225,  -1,  -1,  -1, -89, 569, 2035,   0,   0,   0,   0, 1200, 1200, 1200, 1208, -111790, ANGLE_MODE, SMALL_ANGLE, IDLE, 1, 1
 35, 67445510,   4,   0,   6,   0,   0,   0,   1,  -2,   0,  10,   1,   3, 1000, 1.072, 34.025, 225,  -1,   0,  -2, -89, 569, 2034,   0,   0,   0,   0, 1200, 1200, 1200, 1210, -111790, ANGLE_MODE, SMALL_ANGLE, IDLE, 1, 1
 36, 67446529,   4,   0,   6,   0,   0,   0,   2,  -3,   0,  10,   1,   3, 1000, 1.072, 34.025, 225,  -1,   0,  -2, -89, 569, 2034,   0,   0,   0,   0, 1200, 1200, 1200, 1212, -111790, ANGLE_MODE, SMALL_ANGLE, IDLE, 1, 1
 37, 67447535,   3,   0,   6,   0,   0,   0,   1,  -3,   0,  10,   1,   3, 1000, 1.072, 34.025, 225,  -1,   0,  -2, -89, 569, 2033,   0,   0,   0,   0, 1200, 1200, 1200, 1211, -111790, ANGLE_MODE, SMALL_ANGLE, IDLE, 1, 1
 38, 67448549,   3,   0,   6,   0,   0,   0,   0,  -3,   0,  10,   1,   3, 1000, 1.072, 34.025, 225,  -1,   0,  -2, -88, 569, 2033,   0,   0,   0,   0, 1200, 1200, 1200, 1211, -111790, ANGLE_MODE, SMALL_ANGLE, IDLE, 1, 1
 39, 67449567,   3,   0,   6,   0,   0,   0,  -1,  -3,   0,  10,   1,   3, 1000, 1.072, 34.025, 225,  -1,   0,  -2, -88, 569, 2032,   0,   0,   0,   0, 1201, 1200, 1200, 1209, -111790, ANGLE_MODE, SMALL_ANGLE, IDLE, 1, 1
 40, 67450573,   3,   0,   6,   0,   0,   0,  -2,  -3,   0,  10,   1,   3, 1000, 1.072, 34.025, 225,  -1,   1,  -2, -87, 569, 2032,   0,   0,   0,   0, 1201, 1200, 1200, 1208, -111790, ANGLE_MODE, SMALL_ANGLE, IDLE, 1, 1
 41, 67451573,   3,   0,   5,   0,   0,   0,  -2,  -2,   0,   9,   1,   3, 1000, 1.072, 34.125, 225,  -1,   0,  -2, -87, 569, 2031,   0,   0,   0,   0, 1201, 1200, 1200, 1206, -111790, ANGLE_MODE, SMALL_ANGLE, IDLE, 1, 1
 42, 67452581,   2,   0,   5,   0,   0,   0,  -2,  -2,   0,   9,   1,   3, 1000, 1.072, 34.125, 225,  -1,   0,  -2, -87, 570, 2031,   0,   0,   0,   0, 1201, 1200, 1200, 1206, -111790, ANGLE_MODE, SMALL_ANGLE, IDLE, 1, 1
 43, 67453600,   2,   0,   4,   0,   0,   0,  -2,  -1,   0,   9,   1,   3, 1000, 1.072, 34.125, 225,  -1,   0,  -1, -86, 570, 2031,   0,   0,   0,   0, 1201, 1200, 1200, 1205, -111790, ANGLE_MODE, SMALL_ANGLE, IDLE, 1, 1
 44, 67454618,   2,   0,   3,   0,   0,   0,  -2,   0,   0,   9,   1,   3, 1000, 1.072, 34.125, 225,  -1,   0,  -1, -86, 570, 2030,   0,   0,   0,   0, 1201, 1200, 1200, 1204, -111790, ANGLE_MODE, SMALL_ANGLE, IDLE, 1, 1
 45, 67455628,   2,   0,   4,   0,   0,   0,  -2,   0,   0,   9,   1,   3, 1000, 1.072, 34.125, 225,   0,   0,  -1, -87, 571, 2030,   0,   0,   0,   0, 1203, 1200, 1200, 1204, -111790, ANGLE_MODE, SMALL_ANGLE, IDLE, 1, 1
 46, 67456640,   2,   0,   5,   0,   0,   0,  -2,   0,   0,   9,   1,   3, 1000, 1.072, 34.125, 225,   0,   1,  -2, -86, 572, 2030,   0,   0,   0,   0, 1203, 1200, 1200, 1204, -111790, ANGLE_MODE, SMALL_ANGLE, IDLE, 1, 1
 47, 67457644,   1,   0,   6,   0,   0,   0,  -3,   0,   0,   9,   1,   3, 1000, 1.072, 34.125, 225,   1,   1,  -2, -86, 572, 2029,   0,   0,   0,   0, 1205, 1200, 1200, 1204, -111790, ANGLE_MODE, SMALL_ANGLE, IDLE, 1, 1
 48, 67458650,   0,   0,   7,   0,   0,   0,  -5,  -1,   0,   9,   1,   3, 1000, 1.072, 34.125, 225,   1,   1,  -2, -85, 573, 2029,   0,   0,   0,   0, 1207, 1200, 1200, 1203, -111790, ANGLE_MODE, SMALL_ANGLE, IDLE, 1, 1
 49, 67459664,   0,   0,   6,   0,   0,   0,  -6,  -1,   0,   9,   1,   3, 1000, 1.072, 34.125, 225,   1,   1,  -2, -84, 574, 2029,   0,   0,   0,   0, 1208, 1201, 1200, 1202, -111790, ANGLE_MODE, SMALL_ANGLE, IDLE, 1, 1
 50, 67460671,   0,  -1,   6,   0,   0,   0,  -6,  -1,   0,   9,   1,   3, 1000, 1.072, 34.125, 225,   1,   1,  -2, -83, 574, 2029,   0,   0,   0,   0, 1207, 1201, 1200, 1202, -111790, ANGLE_MODE, SMALL_ANGLE, IDLE, 1, 1
 51, 67461685,   0,  -1,   6,   0,   0,   0,  -5,  -1,   0,   9,   1,   3, 1000, 1.072, 34.125, 225,   1,   1,  -2, -83, 573, 2028,   0,   0,   0,   0, 1206, 1200, 1200, 1203, -111790, ANGLE_MODE, SMALL_ANGLE, IDLE, 1, 1
 52, 67462695,   1,  -1,   5,   0,   0,   0,  -2,  -1,   0,   9,   1,   3, 1000, 1.072, 34.125, 225,   0,   1,  -2, -82, 573, 2028,   0,   0,   0,   0, 1202, 1200, 1200, 1205, -111790, ANGLE_MODE, SMALL_ANGLE, IDLE, 1, 1
 53, 67463708,   1,  -1,   4,   0,   0,   0,   1,  -1,   0,   9,   1,   3, 1000, 1.072, 34.125, 225,   0,   1,  -1, -81, 573, 2028,   0,   0,   0,   0, 1200, 1200, 1200, 1208, -111790, ANGLE_MODE, SMALL_ANGLE, IDLE, 1, 1
 54, 67464722,   1,  -1,   3,   0,   0,   0,   2,  -2,   0,   9,   1,   3, 1000, 1.072, 34.125, 225,   0,   1,  -1, -81, 572, 2028,   0,   0,   0,   0, 1200, 1200, 1200, 1209, -111790, ANGLE_MODE, SMALL_ANGLE, IDLE, 1, 1
 55, 67465733,   1,  -2,   3,   0,   0,   0,   2,  -2,   0,   9,   1,   3, 1000, 1.072, 34.125, 225,   0,   1,  -1, -80, 572, 2029,   0,   0,   0,   0, 1200, 1200, 1200, 1209, -111790, ANGLE_MODE, SMALL_ANGLE, IDLE, 1, 1
 56, 67466741,   1,  -2,   2,   0,   0,   0,   1,  -3,   0,   9,   1,   3, 1000, 1.072, 34.125, 225,   1,   2,   0, -80, 571, 2029,   0,   0,   0,   0, 1200, 1200, 1200, 1208, -111790, ANGLE_MODE, SMALL_ANGLE, IDLE, 1, 1
 57, 67467752,   0,  -2,   1,   0,   0,   0,   0,  -3,   0,   9,   1,   3, 1000, 1.072, 34.125, 225,   1,   2,   0, -80, 570, 2029,   0,   0,   0,   0, 1200, 1202, 1200, 1206, -111790, ANGLE_MODE, SMALL_ANGLE, IDLE, 1, 1
 58, 67468771,   0,  -2,   0,   0,   0,   0,  -1,  -3,   0,   9,   1,   3, 1000, 1.072, 34.125, 225,   1,   2,   0, -80, 570, 2029,   0,   0,   0,   0, 1200, 1204, 1200, 1204, -111790, ANGLE_MODE, SMALL_ANGLE, IDLE, 1, 1
 59, 67469788,   0,  -3,  -1,   0,   0,   0,  -2,  -3,   0,   9,   1,   3, 1000, 1.072, 34.125, 225,   1,   2,   1, -80, 570, 2029,   0,   0,   0,   0, 1200, 1207, 1200, 1202, -111790, ANGLE_MODE, SMALL_ANGLE, IDLE, 1, 1
 60, 67470795,   0,  -3,  -2,   0,   0,   0,  -3,  -3,   0,   9,   1,   3, 1000, 1.072, 34.125, 225,   1,   3,   1, -80, 570, 2029,   0,   0,   0,   0, 1200, 1209, 1200, 1202, -111790, ANGLE_MODE, SMALL_ANGLE, IDLE, 1, 1
 61, 67471807,   1,  -3,  -3,   0,   0,   0,  -1,  -4,   0,   8,   1,   3, 1000, 1.072, 34.125, 225,   1,   3,   1, -81, 570, 2029,   0,   0,   0,   0, 1200, 1209, 1200, 1203, -111790, ANGLE_MODE, SMALL_ANGLE, IDLE, 1, 1
 62, 67472824,   1,  -3,  -2,   0,   0,   0,   0,  -4,   0,   8,   1,   3, 1000, 1.072, 34.125, 225,   0,   3,   1, -82, 569, 2030,   0,   0,   0,   0, 1200, 1207, 1200, 1205, -111790, ANGLE_MODE, SMALL_ANGLE, IDLE, 1, 1
 63, 67473827,   1,  -4,  -2,   0,   0,   0,   2,  -3,   0,   8,   1,   3, 1000, 1.072, 34.125, 225,   0,   3,   1, -82, 569, 2030,   0,   0,   0,   0, 1200, 1204, 1200, 1207, -111790, ANGLE_MODE, SMALL_ANGLE, IDLE, 1, 1
 64, 67474830,   2,  -3,   0,   0,   0,   0,   4,  -2,   0,   8,   1,   3, 1000, 1.072, 34.125, 225,   0,   3,   1, -83, 569, 2030,   0,   0,   0,   0, 1200, 1201, 1201, 1209, -111790, ANGLE_MODE, SMALL_ANGLE, IDLE, 1, 1
 65, 67475845,   2,  -3,   0,   0,   0,   0,   5,  -1,   0,   8,   1,   3, 1000, 1.072, 34.125, 225,   0,   2,   0, -84, 569, 2030,   0,   0,   0,   0, 1200, 1200, 1202, 1209, -111790, ANGLE_MODE, SMALL_ANGLE, IDLE, 1, 1
 66, 67476856,   2,  -3,   0,   0,   0,   0,   5,   0,   0,   8,   1,   3, 1000, 1.072, 34.125, 225,  -1,   2,   0, -85, 568, 2031,   0,   0,   0,   0, 1200, 1200, 1204, 1208, -111790, ANGLE_MODE, SMALL_ANGLE, IDLE, 1, 1
 67, 67477863,   2,  -3,   0,   0,   0,   0,   4,   1,   0,   8,   1,   3, 1000, 1.072, 34.125, 225,   0,   3,   0, -86, 568, 2031,   0,   0,   0,   0, 1200, 1200, 1203, 1207, -111790, ANGLE_MODE, SMALL_ANGLE, IDLE, 1, 1
 68, 67478872,   2,  -3,   0,   0,   0,   0,   3,   1,   0,   8,   1,   3, 1000, 1.072, 34.125, 225,   0,   3,   0, -86, 567, 2030,   0,   0,   0,   0, 1200, 1200, 1202, 1206, -111790, ANGLE_MODE, SMALL_ANGLE, IDLE, 1, 1
 69, 67479879,   1,  -3,   0,   0,   0,   0,   0,   0,   0,   8,   1,   3, 1000, 1.072, 34.125, 225,   0,   3,   0, -87, 567, 2030,   0,   0,   0,   0, 1200, 1201, 1200, 1204, -111790, ANGLE_MODE, SMALL_ANGLE, IDLE, 1, 1
 70, 67480890,   1,  -3,   1,   0,   0,   0,  -1,   0,   0,   8,   1,   3, 1000, 1.072, 34.125, 225,   0,   2,   0, -87, 567, 2030,   0,   0,   0,   0, 1200, 1202, 1200, 1204, -111790, ANGLE_MODE, SMALL_ANGLE, IDLE, 1, 1
 71, 67481897,   1,  -3,   3,   0,   0,   0,  -3,   0,   0,   8,   1,   3, 1000, 1.072, 34.125, 225,   0,   2,  -1, -88, 566, 2030,   0,   0,   0,   0, 1201, 1202, 1200, 1204, -111790, ANGLE_MODE, SMALL_ANGLE, IDLE, 1, 1
 72, 67482907,   1,  -2,   5,   0,   0,   0,  -4,   0,   0,   8,   1,   3, 1000, 1.072, 34.125, 225,   0,   2,  -2, -88, 566, 2030,   0,   0,   0,   0, 1204, 1200, 1200, 1204, -111790, ANGLE_MODE, SMALL_ANGLE, IDLE, 1, 1
 73, 67483921,   1,  -2,   6,   0,   0,   0,  -3,   1,   0,   8,   1,   3, 1000, 1.072, 34.125, 225,   0,   2,  -2, -89, 567, 2030,   0,   0,   0,   0, 1205, 1200, 1200, 1204, -111790, ANGLE_MODE, SMALL_ANGLE, IDLE, 1, 1
 74, 67484935,   1,  -2,   6,   0,   0,   0,  -1,   3,   0,   8,   1,   3, 1000, 1.072, 34.125, 225,   0,   2,  -2, -89, 567, 2029,   0,   0,   0,   0, 1204, 1200, 1200, 1205, -111790, ANGLE_MODE, SMALL_ANGLE, IDLE, 1, 1
 75, 67485943,   1,  -2,   4,   0,   0,   0,   0,   3,   0,   8,   1,   3, 1000, 1.072, 34.125, 225,   0,   1,  -1, -89, 566, 2028,   0,   0,   0,   0, 1203, 1200, 1200, 1204, -111790, ANGLE_MODE, SMALL_ANGLE, IDLE, 1, 1
 76, 67486949,   0,  -1,   2,   0,   0,   0,   0,   4,   0,   8,   1,   3, 1000, 1.072, 34.125, 225,   1,   1,  -1, -89, 567, 2028,   0,   0,   0,   0, 1203, 1200, 1201, 1201, -111790, ANGLE_MODE, SMALL_ANGLE, IDLE, 1, 1
 77, 67487963,   0,  -1,   1,   0,   0,   0,  -1,   5,   0,   8,   1,   3, 1000, 1.072, 34.125, 225,   1,   1,   0, -90, 567, 2028,   0,   0,   0,   0, 1205, 1200, 1201, 1200, -111790, ANGLE_MODE, SMALL_ANGLE, IDLE, 1, 1
 78, 67488979,  -1,   0,   1,   0,   0,   0,  -4,   5,   0,   8,   1,   3, 1000, 1.072, 34.125, 225,   2,   1,   0, -90, 566, 2028,   0,   0,   0,   0, 1208, 1200, 1200, 1200, -111790, ANGLE_MODE, SMALL_ANGLE, IDLE, 1, 1
 79, 67489995,  -1,   0,   2,   0,   0,   0,  -7,   6,   0,   8,   1,   3, 1000, 1.072, 34.125, 225,   2,   0,  -1, -91, 565, 2029,   0,   0,   0,   0, 1212, 1200, 1200, 1200, -111790, ANGLE_MODE, SMALL_ANGLE, IDLE, 1, 1
 80, 67491004,  -1,   0,   3,   0,   0,   0,  -9,   6,   0,   8,   1,   3, 1000, 1.072, 34.125, 225,   2,   0,  -1, -91, 565, 2029,   0,   0,   0,   0, 1214, 1200, 1200, 1200, -111790, ANGLE_MODE, SMALL_ANGLE, IDLE, 1, 1
 81, 67492013,  -1,   0,   3,   0,   0,   0,  -7,   5,   0,   9,   1,   3, 1000, 1.072, 33.825, 225,   2,   0,  -1, -92, 565, 2029,   0,   0,   0,   0, 1213, 1200, 1200, 1200, -111790, ANGLE_MODE, SMALL_ANGLE, IDLE, 1, 1
 82, 67493022,  -1,   0,   3,   0,   0,   0,  -5,   3,   0,   9,   1,   3, 1000, 1.072, 33.825, 225,   2,   0,  -1, -92, 564, 2028,   0,   0,   0,   0, 1210, 1200, 1200, 1200, -111790, ANGLE_MODE, SMALL_ANGLE, IDLE, 1, 1
 83, 67494022,  -1,   0,   0,   0,   0,   0,  -2,   2,   0,   9,   1,   3, 1000, 1.072, 33.825, 225,   2,   0,   0, -93, 564, 2028,   0,   0,   0,   0, 1205, 1201, 1200, 1200, -111790, ANGLE_MODE, SMALL_ANGLE, IDLE, 1, 1
 84, 67495031,  -1,   0,  -1,   0,   0,   0,  -1,   0,   0,   9,   1,   3, 1000, 1.072, 33.825, 225,   2,   0,   1, -94, 564, 2029,   0,   0,   0,   0, 1201, 1203, 1200, 1200, -111790, ANGLE_MODE, SMALL_ANGLE, IDLE, 1, 1
 85, 67496046,  -2,   0,  -2,   0,   0,   0,   0,   0,   0,   9,   1,   3, 1000, 1.072, 33.825, 225,   3,   1,   1, -94, 563, 2029,   0,   0,   0,   0, 1200, 1205, 1200, 1200, -111790, ANGLE_MODE, SMALL_ANGLE, IDLE, 1, 1
 86, 67497060,  -2,   0,  -2,   0,   0,   0,  -1,  -1,   0,   9,   1,   3, 1000, 1.072, 33.825, 225,   3,   1,   1, -95, 562, 2030,   0,   0,   0,   0, 1200, 1207, 1200, 1200, -111790, ANGLE_MODE, SMALL_ANGLE, IDLE, 1, 1
 87, 67498064,  -2,   0,   0,   0,   0,   0,  -2,  -2,   0,   9,   1,   3, 1000, 1.072, 33.825, 225,   3,   1,   0, -96, 562, 2030,   0,   0,   0,   0, 1201, 1206, 1200, 1200, -111790, ANGLE_MODE, SMALL_ANGLE, IDLE, 1, 1
 88, 67499079,  -2,  -1,   2,   0,   0,   0,  -3,  -2,   0,   9,   1,   3, 1000, 1.072, 33.825, 225,   3,   1,   0, -97, 562, 2030,   0,   0,   0,   0, 1202, 1205, 1200, 1200, -111790, ANGLE_MODE, SMALL_ANGLE, IDLE, 1, 1
 89, 67500095,  -2,  -1,   4,   0,   0,   0,  -2,  -2,   0,   9,   1,   3, 1000, 1.072, 33.825, 225,   3,   1,  -2, -99, 562, 2030,   0,   0,   0,   0, 1204, 1203, 1200, 1203, -111790, ANGLE_MODE, SMALL_ANGLE, IDLE, 1, 1
 90, 67501111,  -1,  -1,   5,   0,   0,   0,   0,  -2,   0,   9,   1,   3, 1000, 1.072, 33.825, 225,   2,   1,  -2, -100, 562, 2030,   0,   0,   0,   0, 1202, 1200, 1200, 1205, -111790, ANGLE_MODE, SMALL_ANGLE, IDLE, 1, 1
 91, 67502111,   0,  -1,   4,   0,   0,   0,   2,  -2,   0,   9,   1,   3, 1000, 1.072, 33.825, 225,   1,   1,  -1, -102, 561, 2031,   0,   0,   0,   0, 1200, 1200, 1200, 1207, -111790, ANGLE_MODE, SMALL_ANGLE, IDLE, 1, 1
 92, 67503126,   0,  -1,   3,   0,   0,   0,   5,  -1,   0,   9,   1,   3, 1000, 1.072, 33.825, 225,   1,   1,  -1, -103, 562, 2032,   0,   0,   0,   0, 1200, 1200, 1200, 1208, -111790, ANGLE_MODE, SMALL_ANGLE, IDLE, 1, 1
 93, 67504139,   0,  -1,   2,   0,   0,   0,   7,   0,   0,   9,   1,   3, 1000, 1.072, 33.825, 225,   1,   1,  -1, -104, 562, 2032,   0,   0,   0,   0, 1200, 1200, 1203, 1209, -111790, ANGLE_MODE, SMALL_ANGLE, IDLE, 1, 1
 94, 67505149,   0,  -1,   0,   0,   0,   0,   8,   0,   0,   9,   1,   3, 1000, 1.072, 33.825, 225,   1,   1,   0, -105, 563, 2031,   0,   0,   0,   0, 1200, 1200, 1206, 1207, -111790, ANGLE_MODE, SMALL_ANGLE, IDLE, 1, 1
 95, 67506149,   1,   0,   0,   0,   0,   0,   8,   0,   0,   9,   1,   3, 1000, 1.072, 33.825, 225,   0,   1,   1, -106, 563, 2031,   0,   0,   0,   0, 1200, 1200, 1207, 1206, -111790, ANGLE_MODE, SMALL_ANGLE, IDLE, 1, 1
 96, 67507153,   1,   0,  -1,   0,   0,   0,   6,   0,   0,   9,   1,   3, 1000, 1.072, 33.825, 225,   0,   1,   1, -107, 564, 2030,   0,   0,   0,   0, 1200, 1200, 1206, 1205, -111790, ANGLE_MODE, SMALL_ANGLE, IDLE, 1, 1
 97, 67508166,   1,   0,  -2,   0,   0,   0,   5,   1,   0,   9,   1,   3, 1000, 1.072, 33.825, 225,   0,   1,   1, -108, 564, 2030,   0,   0,   0,   0, 1200, 1200, 1206, 1203, -111790, ANGLE_MODE, SMALL_ANGLE, IDLE, 1, 1
 98, 67509171,   1,   0,  -2,   0,   0,   0,   3,   1,   0,   9,   1,   3, 1000, 1.072, 33.825, 225,   1,   0,   1, -108, 565, 2030,   0,   0,   0,   0, 1200, 1200, 1206, 1200, -111790, ANGLE_MODE, SMALL_ANGLE, IDLE, 1, 1
 99, 67510175,   0,   0,  -2,   0,   0,   0,   0,   2,   0,   9,   1,   3, 1000, 1.072, 33.825, 225,   1,   0,   1, -109, 566, 2030,   0,   0,   0,   0, 1200, 1200, 1205, 1200, -111790, ANGLE_MODE, SMALL_ANGLE, IDLE, 1, 1
100, 67511182,   0,   0,  -2,   0,   0,   0,  -2,   3,   0,   9,   1,   3, 1000, 1.072, 33.825, 225,   2,   0,   1, -109, 566, 2029,   0,   0,   0,   0, 1203, 1201, 1202, 1200, -111790, ANGLE_MODE, SMALL_ANGLE, IDLE, 1, 1
101, 67512194,  -1,   0,  -1,   0,   0,   0,  -5,   4,   0,  10,   1,   3, 1000, 1.072, 33.825, 225,   2,   0,   1, -110, 567, 2029,   0,   0,   0,   0, 1207, 1202, 1200, 1200, -111791, ANGLE_MODE, SMALL_ANGLE, IDLE, 1, 1
102, 67513205,  -1,   1,   1,   0,   0,   0,  -7,   4,   0,  10,   1,   3, 1000, 1.072, 33.825, 225,   2,  -1,   0, -110, 568, 2029,   0,   0,   0,   0, 1212, 1201, 1200, 1200, -111791, ANGLE_MODE, SMALL_ANGLE, IDLE, 1, 1
103, 67514214,  -1,   1,   1,   0,   0,   0,  -8,   5,   0,  10,   1,   3, 1000, 1.072, 33.825, 225,   3,  -1,   0, -110, 568, 2028,   0,   0,   0,   0, 1213, 1201, 1200, 1200, -111791, ANGLE_MODE, SMALL_ANGLE, IDLE, 1, 1
104, 67515215,  -1,   1,   1,   0,   0,   0,  -8,   5,   0,  10,   1,   3, 1000, 1.072, 33.825, 225,   3,  -1,   0, -110, 568, 2028,   0,   0,   0,   0, 1213, 1201, 1200, 1200, -111791, ANGLE_MODE, SMALL_ANGLE, IDLE, 1, 1
105, 67516225,  -2,   1,   0,   0,   0,   0,  -7,   4,   0,  10,   1,   3, 1000, 1.072, 33.825, 225,   3,  -1,   0, -110, 569, 2028,   0,   0,   0,   0, 1211, 1202, 1200, 1200, -111791, ANGLE_MODE, SMALL_ANGLE, IDLE, 1, 1
106, 67517245,  -2,   0,  -1,   0,   0,   0,  -6,   2,   0,  10,   1,   3, 1000, 1.072, 33.825, 225,   3,   0,   1, -110, 569, 2028,   0,   0,   0,   0, 1208, 1206, 1200, 1200, -111791, ANGLE_MODE, SMALL_ANGLE, IDLE, 1, 1
107, 67518258,  -3,   0,  -3,   0,   0,   0,  -6,   0,   0,  10,   1,   3, 1000, 1.072, 33.825, 225,   4,   0,   2, -110, 569, 2027,   0,   0,   0,   0, 1205, 1209, 1200, 1200, -111791, ANGLE_MODE, SMALL_ANGLE, IDLE, 1, 1
108, 67519269,  -3,   0,  -5,   0,   0,   0,  -6,  -2,   0,  10,   1,   3, 1000, 1.072, 33.825, 225,   4,   0,   2, -110, 569, 2026,   0,   0,   0,   0, 1202, 1211, 1200, 1200, -111791, ANGLE_MODE, SMALL_ANGLE, IDLE, 1, 1
109, 67520280,  -2,   0,  -5,   0,   0,   0,  -4,  -3,   0,  10,   1,   3, 1000, 1.072, 33.825, 225,   3,   0,   2, -109, 569, 2026,   0,   0,   0,   0, 1200, 1210, 1200, 1200, -111791, ANGLE_MODE, SMALL_ANGLE, IDLE, 1, 1
110, 67521291,  -2,   0,  -2,   0,   0,   0,  -1,  -2,   0,  10,   1,   3, 1000, 1.072, 33.825, 225,   3,   0,   1, -109, 570, 2027,   0,   0,   0,   0, 1200, 1206, 1200, 1200, -111791, ANGLE_MODE, SMALL_ANGLE, IDLE, 1, 1
111, 67522308,  -1,   1,   0,   0,   0,   0,   2,  -1,   0,  10,   1,   3, 1000, 1.072, 33.825, 225,   3,  -1,   0, -109, 570, 2027,   0,   0,   0,   0, 1200, 1201, 1200, 1200, -111791, ANGLE_MODE, SMALL_ANGLE, IDLE, 1, 1
112, 67523326,  -1,   1,   0,   0,   0,   0,   5,   0,   0,  11,   1,   3, 1000, 1.072, 33.825, 225,   3,  -1,   0, -109, 570, 2028,   0,   0,   0,   0, 1200, 1200, 1203, 1202, -111791, ANGLE_MODE, SMALL_ANGLE, IDLE, 1, 1
113, 67524340,  -1,   0,   2,   0,   0,   0,   5,   0,   0,  11,   1,   3, 1000, 1.072, 33.825, 225,   3,   0,  -1, -109, 570, 2028,   0,   0,   0,   0, 1200, 1200, 1202, 1203, -111791, ANGLE_MODE, SMALL_ANGLE, IDLE, 1, 1
114, 67525345,  -1,   0,   1,   0,   0,   0,   4,   0,   0,  11,   1,   3, 1000, 1.072, 33.825, 225,   3,   0,   0, -109, 571, 2028,   0,   0,   0,   0, 1201, 1200, 1201, 1202, -111791, ANGLE_MODE, SMALL_ANGLE, IDLE, 1, 1
115, 67526350,  -1,   0,   0,   0,   0,   0,   2,   0,   0,  11,   1,   3, 1000, 1.072, 33.825, 225,   2,   0,   0, -109, 571, 2028,   0,   0,   0,   0, 1200, 1200, 1201, 1201, -111791, ANGLE_MODE, SMALL_ANGLE, IDLE, 1, 1
116, 67527366,   0,   0,   1,   0,   0,   0,   2,   0,   0,  11,   1,   3, 1000, 1.072, 33.825, 225,   2,   0,   0, -109, 572, 2029,   0,   0,   0,   0, 1200, 1200, 1200, 1203, -111791, ANGLE_MODE, SMALL_ANGLE, IDLE, 1, 1
117, 67528379,   1,   0,   0,   0,   0,   0,   4,  -1,   0,  11,   1,   3, 1000, 1.072, 33.825, 225,   1,   0,   0, -109, 573, 2030,   0,   0,   0,   0, 1200, 1200, 1202, 1205, -111791, ANGLE_MODE, SMALL_ANGLE, IDLE, 1, 1
118, 67529397,   2,   0,   0,   0,   0,   0,   7,  -1,   0,  11,   1,   3, 1000, 1.072, 33.825, 225,   0,   0,   0, -109, 573, 2031,   0,   0,   0,   0, 1200, 1200, 1206, 1207, -111791, ANGLE_MODE, SMALL_ANGLE, IDLE, 1, 1
119, 67530413,   2,   1,   2,   0,   0,   0,  10,   0,   0,  11,   1,   3, 1000, 1.072, 33.825, 225,   0,  -1,  -1, -110, 574, 2031,   0,   0,   0,   0, 1200, 1200, 1208, 1211, -111791, ANGLE_MODE, SMALL_ANGLE, IDLE, 1, 1
120, 67531422,   2,   0,   3,   0,   0,   0,  11,   0,   0,  11,   1,   3, 1000, 1.072, 33.825, 225,   0,   0,  -1, -110, 575, 2031,   0,   0,   0,   0, 1200, 1200, 1209, 1211, -111791, ANGLE_MODE, SMALL_ANGLE, IDLE, 1, 1
121, 67532423,   1,   1,   1,   0,   0,   0,   9,   1,   0,  12,   2,   4, 1000, 1.072, 34.275, 225,   1,  -1,   0, -110, 576, 2031,   0,   0,   0,   0, 1200, 1200, 1209, 1207, -111791, ANGLE_MODE, SMALL_ANGLE, IDLE, 1, 1
122, 67533436,   0,   1,   0,   0,   0,   0,   4,   2,   0,  12,   2,   4, 1000, 1.072, 34.275, 225,   1,  -1,   0, -110, 577, 2030,   0,   0,   0,   0, 1200, 1200, 1206, 1202, -111791, ANGLE_MODE, SMALL_ANGLE, IDLE, 1, 1
123, 67534440,   0,   1,  -2,   0,   0,   0,  -1,   2,   0,  12,   2,   4, 1000, 1.072, 34.275, 225,   2,  -1,   1, -111, 578, 2030,   0,   0,   0,   0, 1202, 1200, 1203, 1200, -111791, ANGLE_MODE, SMALL_ANGLE, IDLE, 1, 1
124, 67535447,   0,   1,  -3,   0,   0,   0,  -6,   2,   0,  12,   2,   4, 1000, 1.072, 34.275, 225,   2,  -1,   2, -112, 579, 2030,   0,   0,   0,   0, 1204, 1204, 1201, 1200, -111791, ANGLE_MODE, SMALL_ANGLE, IDLE, 1, 1
125, 67536457,   0,   2,  -5,   0,   0,   0,  -8,   2,   0,  12,   2,   4, 1000, 1.072, 34.275, 225,   2,  -1,   2, -112, 580, 2030,   0,   0,   0,   0, 1205, 1206, 1201, 1200, -111791, ANGLE_MODE, SMALL_ANGLE, IDLE, 1, 1
126, 67537473,   0,   2,  -5,   0,   0,   0,  -7,   2,   0,  12,   2,   4, 1000, 1.072, 34.275, 225,   2,  -1,   2, -112, 580, 2030,   0,   0,   0,   0, 1205, 1206, 1202, 1200, -111791, ANGLE_MODE, SMALL_ANGLE, IDLE, 1, 1
127, 67538476,   0,   2,  -5,   0,   0,   0,  -4,   2,   0,  12,   2,   4, 1000, 1.072, 34.275, 225,   2,  -1,   2, -112, 581, 2029,   0,   0,   0,   0, 1203, 1204, 1204, 1200, -111791, ANGLE_MODE, SMALL_ANGLE, IDLE, 1, 1
128, 67539482,   0,   2,  -5,   0,   0,   0,  -1,   2,   0,  13,   2,   4, 1000, 1.072, 34.275, 225,   2,  -1,   2, -111, 582, 2029,   0,   0,   0,   0, 1201, 1201, 1206, 1200, -111791, ANGLE_MODE, SMALL_ANGLE, IDLE, 1, 1
129, 67540495,   0,   2,  -2,   0,   0,   0,   0,   1,   0,  13,   2,   4, 1000, 1.072, 34.275, 225,   1,  -1,   1, -111, 582, 2028,   0,   0,   0,   0, 1200, 1200, 1205, 1200, -111791, ANGLE_MODE, SMALL_ANGLE, IDLE, 1, 1
130, 67541504,   1,   1,  -2,   0,   0,   0,   1,   0,   0,  13,   2,   4, 1000, 1.072, 34.275, 225,   1,  -1,   1, -110, 582, 2028,   0,   0,   0,   0, 1200, 1200, 1206, 1200, -111791, ANGLE_MODE, SMALL_ANGLE, IDLE, 1, 1
131, 67542508,   1,   1,   0,   0,   0,   0,   3,   0,   0,  13,   2,   4, 1000, 1.072, 34.275, 225,   1,  -1,   0, -110, 582, 2028,   0,   0,   0,   0, 1200, 1200, 1204, 1203, -111791, ANGLE_MODE, SMALL_ANGLE, IDLE, 1, 1
132, 67543525,   1,   1,   2,   0,   0,   0,   4,  -1,   0,  13,   2,   4, 1000, 1.072, 34.275, 225,   1,  -1,  -1, -109, 582, 2028,   0,   0,   0,   0, 1200, 1200, 1203, 1206, -111791, ANGLE_MODE, SMALL_ANGLE, IDLE, 1, 1
133, 67544533,   2,   1,   2,   0,   0,   0,   5,  -2,   0,  13,   2,   4, 1000, 1.072, 34.275, 225,   0,   0,  -1, -108, 582, 2028,   0,   0,   0,   0, 1200, 1200, 1203, 1208, -111791, ANGLE_MODE, SMALL_ANGLE, IDLE, 1, 1
134, 67545544,   2,   0,   2,   0,   0,   0,   5,  -3,   0,  13,   2,   4, 1000, 1.072, 34.275, 225,   0,   0,  -1, -107, 583, 2027,   0,   0,   0,   0, 1200, 1200, 1202, 1210, -111791, ANGLE_MODE, SMALL_ANGLE, IDLE, 1, 1
135, 67546562,   3,   0,   2,   0,   0,   0,   5,  -3,   0,  14,   2,   4, 1000, 1.072, 34.275, 225,   0,   0,   0, -106, 584, 2027,   0,   0,   0,   0, 1200, 1200, 1203, 1210, -111791, ANGLE_MODE, SMALL_ANGLE, IDLE, 1, 1
136, 67547579,   3,   0,   1,   0,   0,   0,   5,  -4,   0,  14,   2,   4, 1000, 1.072, 34.275, 225,   0,   0,   0, -105, 585, 2026,   0,   0,   0,   0, 1200, 1200, 1203, 1210, -111791, ANGLE_MODE, SMALL_ANGLE, IDLE, 1, 1
137, 67548590,   4,   0,   1,   0,   0,   0,   5,  -3,   0,  14,   2,   4, 1000, 1.072, 34.275, 225,  -1,   0,   0, -105, 586, 2026,   0,   0,   0,   0, 1200, 1200, 1204, 1210, -111791, ANGLE_MODE, SMALL_ANGLE, IDLE, 1, 1
138, 67549595,   4,   0,   1,   0,   0,   0,   5,  -2,   0,  14,   2,   4, 1000, 1.072, 34.275, 225,  -1,   0,   0, -104, 587, 2026,   0,   0,   0,   0, 1200, 1200, 1205, 1209, -111791, ANGLE_MODE, SMALL_ANGLE, IDLE, 1, 1
139, 67550600,   4,   0,   0,   0,   0,   0,   4,  -1,   0,  14,   2,   4, 1000, 1.072, 34.275, 225,  -1,   0,   0, -104, 588, 2026,   0,   0,   0,   0, 1200, 1200, 1206, 1207, -111791, ANGLE_MODE, SMALL_ANGLE, IDLE, 1, 1
140, 67551614,   3,   0,   2,   0,   0,   0,   3,   0,   0,  14,   2,   4, 1000, 1.072, 34.275, 225,   0,   0,   0, -103, 589, 2025,   0,   0,   0,   0, 1200, 1200, 1204, 1206, -111791, ANGLE_MODE, SMALL_ANGLE, IDLE, 1, 1
141, 67552632,   3,   1,   2,   0,   0,   0,   1,   1,   0,  13,   3,   6, 1000, 1.072, 34.275, 225,   0,  -1,   0, -104, 590, 2024,   0,   0,   0,   0, 1200, 1200, 1204, 1203, -111791, ANGLE_MODE, SMALL_ANGLE, IDLE, 1, 1
142, 67553636,   3,   1,   3,   0,   0,   0,  -1,   2,   0,  13,   3,   6, 1000, 1.072, 34.275, 225,   0,  -1,  -1, -104, 591, 2024,   0,   0,   0,   0, 1204, 1200, 1201, 1201, -111791, ANGLE_MODE, SMALL_ANGLE, IDLE, 1, 1
143, 67554643,   3,   1,   5,   0,   0,   0,  -2,   3,   0,  13,   3,   6, 1000, 1.072, 34.275, 225,   0,  -1,  -1, -105, 592, 2023,   0,   0,   0,   0, 1207, 1200, 1200, 1200, -111791, ANGLE_MODE, SMALL_ANGLE, IDLE, 1, 1
144, 67555659,   3,   2,   5,   0,   0,   0,  -2,   3,   0,  13,   3,   6, 1000, 1.072, 34.275, 225,   0,  -1,  -2, -106, 593, 2022,   0,   0,   0,   0, 1208, 1200, 1200, 1201, -111791, ANGLE_MODE, SMALL_ANGLE, IDLE, 1, 1
145, 67556665,   3,   1,   6,   0,   0,   0,  -1,   3,   0,  13,   3,   6, 1000, 1.072, 34.275, 225,   0,  -1,  -2, -107, 593, 2022,   0,   0,   0,   0, 1208, 1200, 1200, 1202, -111791, ANGLE_MODE, SMALL_ANGLE, IDLE, 1, 1
146, 67557678,   2,   1,   5,   0,   0,   0,  -1,   2,   0,  13,   3,   6, 1000, 1.072, 34.275, 225,   0,   0,  -2, -107, 592, 2022,   0,   0,   0,   0, 1206, 1200, 1200, 1202, -111791, ANGLE_MODE, SMALL_ANGLE, IDLE, 1, 1
147, 67558697,   1,   1,   5,   0,   0,   0,  -2,   0,   0,  13,   3,   6, 1000, 1.072, 34.275, 225,   1,  -1,  -1, -108, 592, 2021,   0,   0,   0,   0, 1206, 1200, 1200, 1202, -111791, ANGLE_MODE, SMALL_ANGLE, IDLE, 1, 1
148, 67559703,   1,   1,   4,   0,   0,   0,  -4,   0,   0,  13,   3,   6, 1000, 1.072, 34.275, 225,   1,  -1,  -1, -108, 592, 2020,   0,   0,   0,   0, 1206, 1200, 1200, 1200, -111791, ANGLE_MODE, SMALL_ANGLE, IDLE, 1, 1
149, 67560714,   0,   1,   2,   0,   0,   0,  -6,  -1,   0,  13,   3,   6, 1000, 1.072, 34.275, 225,   1,   0,   0, -108, 591, 2020,   0,   0,   0,   0, 1205, 1202, 1200, 1200, -111791, ANGLE_MODE, SMALL_ANGLE, IDLE, 1, 1
150, 67561728,   0,   1,   0,   0,   0,   0,  -7,  -1,   0,  13,   3,   6, 1000, 1.072, 34.275, 225,   2,  -1,   1, -108, 589, 2021,   0,   0,   0,   0, 1205, 1204, 1200, 1200, -111791, ANGLE_MODE, SMALL_ANGLE, IDLE, 1, 1
151, 67562734,   1,   2,  -1,   0,   0,   0,  -6,   0,   0,  13,   3,   6, 1000, 1.072, 34.275, 225,   1,  -1,   1, -107, 588, 2021,   0,   0,   0,   0, 1204, 1202, 1200, 1200, -111791, ANGLE_MODE, SMALL_ANGLE, IDLE, 1, 1
152, 67563741,   2,   2,   0,   0,   0,   0,  -3,   1,   0,  13,   3,   6, 1000, 1.072, 34.275, 225,   1,  -1,   1, -105, 587, 2022,   0,   0,   0,   0, 1202, 1200, 1202, 1200, -111791, ANGLE_MODE, SMALL_ANGLE, IDLE, 1, 1
153, 67564745,   2,   1,  -1,   0,   0,   0,   0,   1,   0,  13,   3,   6, 1000, 1.072, 34.275, 225,   0,   0,   1, -104, 585, 2023,   0,   0,   0,   0, 1200, 1200, 1205, 1200, -111791, ANGLE_MODE, SMALL_ANGLE, IDLE, 1, 1
154, 67565764,   3,   1,   1,   0,   0,   0,   4,   0,   0,  13,   3,   6, 1000, 1.072, 34.275, 225,   0,  -1,   0, -103, 584, 2024,   0,   0,   0,   0, 1200, 1200, 1206, 1205, -111791, ANGLE_MODE, SMALL_ANGLE, IDLE, 1, 1
155, 67566766,   3,   1,   2,   0,   0,   0,   7,   0,   0,  13,   3,   6, 1000, 1.072, 34.275, 225,  -1,  -1,   0, -102, 582, 2026,   0,   0,   0,   0, 1200, 1200, 1207, 1209, -111791, ANGLE_MODE, SMALL_ANGLE, IDLE, 1, 1
156, 67567771,   4,   1,   1,   0,   0,   0,   8,   0,   0,  13,   3,   6, 1000, 1.072, 34.275, 225,  -1,  -1,   0, -102, 580, 2028,   0,   0,   0,   0, 1200, 1200, 1209, 1210, -111791, ANGLE_MODE, SMALL_ANGLE, IDLE, 1, 1
157, 67568787,   5,   1,   1,   0,   0,   0,   9,   0,   0,  13,   3,   6, 1000, 1.072, 34.275, 225,  -1,   0,   0, -101, 578, 2030,   0,   0,   0,   0, 1200, 1200, 1209, 1211, -111791, ANGLE_MODE, SMALL_ANGLE, IDLE, 1, 1
158, 67569794,   5,   1,   1,   0,   0,   0,   9,   0,   0,  13,   3,   6, 1000, 1.072, 34.275, 225,  -2,  -1,   0, -102, 578, 2031,   0,   0,   0,   0, 1200, 1200, 1211, 1210, -111791, ANGLE_MODE, SMALL_ANGLE, IDLE, 1, 1
159, 67570805,   5,   2,   0,   0,   0,   0,   8,   0,   0,  13,   3,   6, 1000, 1.072, 34.275, 225,  -2,  -1,   1, -102, 577, 2032,   0,   0,   0,   0, 1200, 1200, 1211, 1208, -111791, ANGLE_MODE, SMALL_ANGLE, IDLE, 1, 1
160, 67571814,   5,   1,  -2,   0,   0,   0,   6,   0,   0,  13,   3,   6, 1000, 1.072, 34.275, 225,  -2,  -1,   1, -102, 577, 2032,   0,   0,   0,   0, 1200, 1200, 1212, 1206, -111791, ANGLE_MODE, SMALL_ANGLE, IDLE, 1, 1
161, 67572826,   5,   1,  -3,   0,   0,   0,   4,   0,   0,  12,   3,   5, 1000, 1.072, 35.275, 225,  -2,  -1,   2, -102, 577, 2033,   0,   0,   0,   0, 1200, 1200, 1212, 1203, -111791, ANGLE_MODE, SMALL_ANGLE, IDLE, 1, 1
162, 67573843,   5,   2,  -5,   0,   0,   0,   2,   1,   0,  12,   3,   5, 1000, 1.072, 35.275, 225,  -2,  -1,   2, -102, 576, 2034,   0,   0,   0,   0, 1200, 1200, 1212, 1200, -111791, ANGLE_MODE, SMALL_ANGLE, IDLE, 1, 1
163, 67574850,   4,   2,  -7,   0,   0,   0,   0,   1,   0,  12,   3,   5, 1000, 1.072, 35.275, 225,  -1,  -1,   3, -102, 576, 2036,   0,   0,   0,   0, 1200, 1200, 1211, 1200, -111791, ANGLE_MODE, SMALL_ANGLE, IDLE, 1, 1
164, 67575866,   3,   1,  -7,   0,   0,   0,  -1,   0,   0,  12,   3,   5, 1000, 1.072, 35.275, 225,  -1,  -1,   3, -103, 576, 2036,   0,   0,   0,   0, 1200, 1202, 1209, 1200, -111791, ANGLE_MODE, SMALL_ANGLE, IDLE, 1, 1
165, 67576875,   2,   1,  -5,   0,   0,   0,  -4,   0,   0,  12,   3,   5, 1000, 1.072, 35.275, 225,   0,  -1,   3, -104, 576, 2036,   0,   0,   0,   0, 1200, 1203, 1205, 1200, -111791, ANGLE_MODE, SMALL_ANGLE, IDLE, 1, 1
166, 67577889,   2,   1,  -3,   0,   0,   0,  -7,   0,   0,  12,   3,   5, 1000, 1.072, 35.275, 225,   0,  -1,   2, -104, 575, 2036,   0,   0,   0,   0, 1203, 1205, 1200, 1200, -111791, ANGLE_MODE, SMALL_ANGLE, IDLE, 1, 1
167, 67578910,   0,   0,   0,   0,   0,   0, -10,  -1,   0,  12,   3,   5, 1000, 1.072, 35.275, 225,   1,   0,   1, -105, 575, 2036,   0,   0,   0,   0, 1206, 1207, 1200, 1200, -111791, ANGLE_MODE, SMALL_ANGLE, IDLE, 1, 1
168, 67579915,   0,   0,   2,   0,   0,   0, -12,  -2,   0,  12,   3,   5, 1000, 1.072, 35.275, 225,   2,   0,   0, -105, 574, 2036,   0,   0,   0,   0, 1209, 1209, 1200, 1200, -111791, ANGLE_MODE, SMALL_ANGLE, IDLE, 1, 1
169, 67580929,   0,   0,   4,   0,   0,   0, -13,  -3,   0,  12,   3,   5, 1000, 1.072, 35.275, 225,   2,   0,  -1, -105, 573, 2036,   0,   0,   0,   0, 1211, 1208, 1200, 1200, -111791, ANGLE_MODE, SMALL_ANGLE, IDLE, 1, 1
170, 67581935,   0,   0,   5,   0,   0,   0, -12,  -3,   0,  12,   3,   5, 1000, 1.072, 35.275, 225,   2,   0,  -2, -105, 572, 2037,   0,   0,   0,   0, 1210, 1207, 1200, 1200, -111791, ANGLE_MODE, SMALL_ANGLE, IDLE, 1, 1
171, 67582942,   0,   0,   5,   0,   0,   0,  -9,  -3,   0,  12,   3,   5, 1000, 1.072, 35.275, 225,   2,   1,  -2, -105, 571, 2036,   0,   0,   0,   0, 1208, 1205, 1200, 1200, -111791, ANGLE_MODE, SMALL_ANGLE, IDLE, 1, 1
172, 67583959,   0,   0,   5,   0,   0,   0,  -5,  -3,   0,  11,   3,   5, 1000, 1.072, 35.275, 225,   1,   1,  -2, -104, 571, 2035,   0,   0,   0,   0, 1205, 1202, 1200, 1204, -111791, ANGLE_MODE, SMALL_ANGLE, IDLE, 1, 1
173, 67584969,   1,   0,   5,   0,   0,   0,   0,  -3,   0,  11,   3,   5, 1000, 1.072, 35.275, 225,   1,   1,  -2, -104, 571, 2035,   0,   0,   0,   0, 1201, 1200, 1200, 1208, -111791, ANGLE_MODE, SMALL_ANGLE, IDLE, 1, 1
174, 67585976,   1,  -1,   6,   0,   0,   0,   3,  -4,   0,  11,   3,   5, 1000, 1.072, 35.275, 225,   0,   1,  -2, -103, 571, 2034,   0,   0,   0,   0, 1200, 1200, 1200, 1212, -111791, ANGLE_MODE, SMALL_ANGLE, IDLE, 1, 1
175, 67586992,   2,  -1,   4,   0,   0,   0,   6,  -5,   0,  11,   3,   5, 1000, 1.072, 35.275, 225,   0,   1,  -1, -102, 571, 2033,   0,   0,   0,   0, 1200, 1200, 1200, 1214, -111791, ANGLE_MODE, SMALL_ANGLE, IDLE, 1, 1
176, 67587999,   2,   0,   3,   0,   0,   0,   9,  -3,   0,  11,   3,   5, 1000, 1.072, 35.275, 225,   0,   1,  -1, -101, 572, 2033,   0,   0,   0,   0, 1200, 1200, 1203, 1214, -111791, ANGLE_MODE, SMALL_ANGLE, IDLE, 1, 1
177, 67589014,   2,   0,   2,   0,   0,   0,   9,  -1,   0,  11,   3,   5, 1000, 1.072, 35.275, 225,   0,   1,  -1, -100, 572, 2033,   0,   0,   0,   0, 1200, 1200, 1205, 1212, -111791, ANGLE_MODE, SMALL_ANGLE, IDLE, 1, 1
178, 67590016,   3,   0,   0,   0,   0,   0,   7,   0,   0,  11,   3,   5, 1000, 1.072, 35.275, 225,   0,   1,   0, -99, 572, 2032,   0,   0,   0,   0, 1200, 1200, 1207, 1208, -111791, ANGLE_MODE, SMALL_ANGLE, IDLE, 1, 1
179, 67591029,   3,   0,   0,   0,   0,   0,   5,   2,   0,  11,   3,   5, 1000, 1.072, 35.275, 225,   0,   0,   0, -98, 573, 2031,   0,   0,   0,   0, 1200, 1200, 1208, 1204, -111791, ANGLE_MODE, SMALL_ANGLE, IDLE, 1, 1
180, 67592032,   3,   0,   0,   0,   0,   0,   3,   4,   0,  11,   3,   5, 1000, 1.072, 35.275, 225,  -1,   0,   0, -97, 573, 2030,   0,   0,   0,   0, 1200, 1200, 1208, 1202, -111791, ANGLE_MODE, SMALL_ANGLE, IDLE, 1, 1
181, 67593039,   3,   1,   0,   0,   0,   0,   2,   5,   0,  10,   2,   4, 1000, 1.072, 35.275, 225,  -1,   0,   0, -96, 573, 2030,   0,   0,   0,   0, 1200, 1200, 1209, 1200, -111791, ANGLE_MODE, SMALL_ANGLE, IDLE, 1, 1
182, 67594049,   3,   1,  -3,   0,   0,   0,   2,   5,   0,  10,   2,   4, 1000, 1.072, 35.275, 225,  -1,   0,   2, -96, 572, 2029,   0,   0,   0,   0, 1200, 1200, 1211, 1200, -111791, ANGLE_MODE, SMALL_ANGLE, IDLE, 1, 1
183, 67595066,   3,   1,  -5,   0,   0,   0,   2,   5,   0,  10,   2,   4, 1000, 1.072, 35.275, 225,  -1,  -1,   2, -96, 571, 2029,   0,   0,   0,   0, 1200, 1200, 1213, 1200, -111791, ANGLE_MODE, SMALL_ANGLE, IDLE, 1, 1
184, 67596068,   2,   1,  -6,   0,   0,   0,   1,   4,   0,  10,   2,   4, 1000, 1.072, 35.275, 225,   0,  -1,   3, -95, 570, 2029,   0,   0,   0,   0, 1200, 1200, 1212, 1200, -111791, ANGLE_MODE, SMALL_ANGLE, IDLE, 1, 1
185, 67597086,   1,   1,  -7,   0,   0,   0,   0,   3,   0,  10,   2,   4, 1000, 1.072, 35.275, 225,   0,  -1,   3, -95, 569, 2029,   0,   0,   0,   0, 1200, 1201, 1209, 1200, -111791, ANGLE_MODE, SMALL_ANGLE, IDLE, 1, 1
186, 67598091,   1,   1,  -6,   0,   0,   0,  -3,   1,   0,  10,   2,   4, 1000, 1.072, 35.275, 225,   0,   0,   3, -95, 568, 2028,   0,   0,   0,   0, 1200, 1205, 1205, 1200, -111791, ANGLE_MODE, SMALL_ANGLE, IDLE, 1, 1
187, 67599106,   1,   0,  -4,   0,   0,   0,  -6,   0,   0,  10,   2,   4, 1000, 1.072, 35.275, 225,   0,   0,   2, -95, 567, 2028,   0,   0,   0,   0, 1200, 1206, 1200, 1200, -111791, ANGLE_MODE, SMALL_ANGLE, IDLE, 1, 1
188, 67600111,   1,   0,  -1,   0,   0,   0,  -6,  -2,   0,   9,   2,   4, 1000, 1.072, 35.275, 225,   1,   0,   1, -95, 566, 2028,   0,   0,   0,   0, 1202, 1206, 1200, 1200, -111791, ANGLE_MODE, SMALL_ANGLE, IDLE, 1, 1
189, 67601127,   1,   0,   1,   0,   0,   0,  -5,  -3,   0,   9,   2,   4, 1000, 1.072, 35.275, 225,   1,   1,   0, -95, 565, 2029,   0,   0,   0,   0, 1201, 1206, 1200, 1200, -111791, ANGLE_MODE, SMALL_ANGLE, IDLE, 1, 1
190, 67602138,   1,  -1,   1,   0,   0,   0,  -3,  -5,   0,   9,   2,   4, 1000, 1.072, 35.275, 225,   0,   1,   0, -94, 565, 2030,   0,   0,   0,   0, 1200, 1205, 1200, 1204, -111791, ANGLE_MODE, SMALL_ANGLE, IDLE, 1, 1
191, 67603146,   1,  -1,   2,   0,   0,   0,  -1,  -7,   0,   9,   2,   4, 1000, 1.072, 35.275, 225,   0,   2,  -1, -93, 565, 2030,   0,   0,   0,   0, 1200, 1204, 1200, 1208, -111791, ANGLE_MODE, SMALL_ANGLE, IDLE, 1, 1
192, 67604160,   2,  -2,   1,   0,   0,   0,   0,  -8,   0,   9,   2,   4, 1000, 1.072, 35.275, 225,   0,   2,   0, -93, 566, 2030,   0,   0,   0,   0, 1200, 1204, 1200, 1211, -111791, ANGLE_MODE, SMALL_ANGLE, IDLE, 1, 1
193, 67605169,   2,  -2,   0,   0,   0,   0,   2,  -8,   0,   9,   2,   4, 1000, 1.072, 35.275, 225,   0,   2,   0, -93, 567, 2030,   0,   0,   0,   0, 1200, 1204, 1200, 1212, -111791, ANGLE_MODE, SMALL_ANGLE, IDLE, 1, 1
194, 67606172,   2,  -2,  -1,   0,   0,   0,   3,  -7,   0,   9,   2,   4, 1000, 1.072, 35.275, 225,   0,   2,   1, -93, 569, 2030,   0,   0,   0,   0, 1200, 1204, 1200, 1211, -111791, ANGLE_MODE, SMALL_ANGLE, IDLE, 1, 1
195, 67607187,   2,  -3,  -2,   0,   0,   0,   3,  -6,   0,   8,   2,   4, 1000, 1.072, 35.275, 225,   0,   2,   1, -92, 570, 2030,   0,   0,   0,   0, 1200, 1205, 1200, 1209, -111791, ANGLE_MODE, SMALL_ANGLE, IDLE, 1, 1
196, 67608204,   2,  -2,  -4,   0,   0,   0,   2,  -4,   0,   8,   2,   4, 1000, 1.072, 35.275, 225,   0,   2,   2, -92, 572, 2031,   0,   0,   0,   0, 1200, 1205, 1201, 1206, -111791, ANGLE_MODE, SMALL_ANGLE, IDLE, 1, 1
197, 67609217,   1,  -2,  -5,   0,   0,   0,   0,  -2,   0,   8,   2,   4, 1000, 1.072, 35.275, 225,   0,   2,   2, -91, 573, 2032,   0,   0,   0,   0, 1200, 1206, 1202, 1202, -111791, ANGLE_MODE, SMALL_ANGLE, IDLE, 1, 1
198, 67610233,   1,  -2,  -5,   0,   0,   0,  -1,   0,   0,   8,   2,   4, 1000, 1.072, 35.275, 225,   0,   2,   2, -92, 574, 2032,   0,   0,   0,   0, 1200, 1206, 1202, 1200, -111791, ANGLE_MODE, SMALL_ANGLE, IDLE, 1, 1
199, 67611250,   1,  -1,  -7,   0,   0,   0,  -2,   1,   0,   8,   2,   4, 1000, 1.072, 35.275, 225,   0,   2,   3, -92, 575, 2032,   0,   0,   0,   0, 1200, 1206, 1204, 1200, -111791, ANGLE_MODE, SMALL_ANGLE, IDLE, 1, 1
200, 67612257,   0,  -1,  -8,   0,   0,   0,  -3,   3,   0,   8,   2,   4, 1000, 1.072, 35.275, 225,   1,   1,   3, -92, 576, 2032,   0,   0,   0,   0, 1200, 1206, 1206, 1200, -111791, ANGLE_MODE, SMALL_ANGLE, IDLE, 1, 1
201, 67613264,   0,   0,  -7,   0,   0,   0,  -3,   4,   0,   9,   1,   2, 1000, 1.072, 33.975, 225,   1,   1,   3, -92, 576, 2033,   0,   0,   0,   0, 1200, 1205, 1206, 1200, -111791, ANGLE_MODE, SMALL_ANGLE, IDLE, 1, 1
202, 67614272,   0,  -1,  -7,   0,   0,   0,  -3,   5,   0,   9,   1,   2, 1000, 1.072, 33.975, 225,   1,   1,   3, -92, 576, 2033,   0,   0,   0,   0, 1200, 1205, 1206, 1200, -111791, ANGLE_MODE, SMALL_ANGLE, IDLE, 1, 1
203, 67615285,   0,   0,  -6,   0,   0,   0,  -3,   5,   0,   9,   1,   2, 1000, 1.072, 33.975, 225,   1,   1,   3, -92, 576, 2034,   0,   0,   0,   0, 1200, 1204, 1206, 1200, -111791, ANGLE_MODE, SMALL_ANGLE, IDLE, 1, 1
204, 67616292,   0,   0,  -6,   0,   0,   0,  -2,   4,   0,   9,   1,   2, 1000, 1.072, 33.975, 225,   1,   1,   3, -92, 576, 2034,   0,   0,   0,   0, 1200, 1204, 1206, 1200, -111791, ANGLE_MODE, SMALL_ANGLE, IDLE, 1, 1
205, 67617306,   1,   0,  -4,   0,   0,   0,  -1,   3,   0,   9,   1,   2, 1000, 1.072, 33.975, 225,   1,   1,   2, -93, 575, 2034,   0,   0,   0,   0, 1200, 1202, 1204, 1200, -111791, ANGLE_MODE, SMALL_ANGLE, IDLE, 1, 1
206, 67618314,   1,  -1,  -2,   0,   0,   0,   0,   1,   0,   9,   1,   2, 1000, 1.072, 33.975, 225,   0,   1,   1, -93, 574, 2034,   0,   0,   0,   0, 1200, 1200, 1203, 1200, -111791, ANGLE_MODE, SMALL_ANGLE, IDLE, 1, 1
207, 67619318,   1,  -1,  -2,   0,   0,   0,   1,   0,   0,   9,   1,   2, 1000, 1.072, 33.975, 225,   0,   1,   1, -93, 574, 2034,   0,   0,   0,   0, 1200, 1200, 1203, 1202, -111791, ANGLE_MODE, SMALL_ANGLE, IDLE, 1, 1
208, 67620324,   1,  -1,   0,   0,   0,   0,   3,  -1,   0,   9,   1,   2, 1000, 1.072, 33.975, 225,   0,   1,   0, -92, 574, 2034,   0,   0,   0,   0, 1200, 1200, 1201, 1206, -111791, ANGLE_MODE, SMALL_ANGLE, IDLE, 1, 1
209, 67621337,   0,  -1,   0,   0,   0,   0,   2,  -2,   0,   9,   1,   2, 1000, 1.072, 33.975, 225,   1,   1,   0, -92, 574, 2034,   0,   0,   0,   0, 1200, 1200, 1200, 1206, -111791, ANGLE_MODE, SMALL_ANGLE, IDLE, 1, 1
210, 67622342,   0,  -1,   0,   0,   0,   0,   1,  -3,   0,   9,   1,   2, 1000, 1.072, 33.975, 225,   1,   1,   0, -93, 574, 2034,   0,   0,   0,   0, 1200, 1202, 1200, 1205, -111791, ANGLE_MODE, SMALL_ANGLE, IDLE, 1, 1
211, 67623350,   0,  -1,   2,   0,   0,   0,   0,  -3,   0,   9,   1,   2, 1000, 1.072, 33.975, 225,   1,   1,  -1, -93, 575, 2034,   0,   0,   0,   0, 1200, 1202, 1200, 1205, -111791, ANGLE_MODE, SMALL_ANGLE, IDLE, 1, 1
212, 67624368,   0,  -2,   5,   0,   0,   0,  -1,  -2,   0,   9,   1,   2, 1000, 1.072, 33.975, 225,   1,   2,  -2, -93, 575, 2033,   0,   0,   0,   0, 1201, 1200, 1200, 1207, -111791, ANGLE_MODE, SMALL_ANGLE, IDLE, 1, 1
213, 67625382,   1,  -1,   7,   0,   0,   0,  -1,  -1,   0,   9,   1,   2, 1000, 1.072, 33.975, 225,   0,   1,  -3, -92, 576, 2033,   0,   0,   0,   0, 1203, 1200, 1200, 1208, -111791, ANGLE_MODE, SMALL_ANGLE, IDLE, 1, 1
214, 67626387,   1,  -1,   7,   0,   0,   0,   0,  -1,   0,   9,   1,   2, 1000, 1.072, 33.975, 225,   0,   1,  -2, -92, 576, 2032,   0,   0,   0,   0, 1201, 1200, 1200, 1209, -111791, ANGLE_MODE, SMALL_ANGLE, IDLE, 1, 1
215, 67627410,   1,  -2,   5,   0,   0,   0,   1,   0,   0,   9,   1,   2, 1000, 1.072, 33.975, 225,   1,   1,  -2, -92, 576, 2032,   0,   0,   0,   0, 1200, 1200, 1200, 1207, -111791, ANGLE_MODE, SMALL_ANGLE, IDLE, 1, 1
216, 67628411,   1,  -1,   2,   0,   0,   0,   2,   0,   0,   9,   1,   2, 1000, 1.072, 33.975, 225,   0,   1,  -1, -92, 576, 2031,   0,   0,   0,   0, 1200, 1200, 1200, 1205, -111792, ANGLE_MODE, SMALL_ANGLE, IDLE, 1, 1
217, 67629424,   1,  -1,  -1,   0,   0,   0,   1,   1,   0,   9,   1,   2, 1000, 1.072, 33.975, 225,   0,   1,   1, -92, 576, 2031,   0,   0,   0,   0, 1200, 1200, 1203, 1202, -111792, ANGLE_MODE, SMALL_ANGLE, IDLE, 1, 1
218, 67630436,   2,   0,  -2,   0,   0,   0,   1,   2,   0,   9,   1,   2, 1000, 1.072, 33.975, 225,   0,   1,   1, -93, 576, 2031,   0,   0,   0,   0, 1200, 1200, 1205, 1200, -111792, ANGLE_MODE, SMALL_ANGLE, IDLE, 1, 1
219, 67631442,   2,   0,   0,   0,   0,   0,   1,   3,   0,   9,   1,   2, 1000, 1.072, 33.975, 225,   0,   1,   0, -94, 575, 2031,   0,   0,   0,   0, 1200, 1200, 1205, 1201, -111792, ANGLE_MODE, SMALL_ANGLE, IDLE, 1, 1
220, 67632445,   2,   0,   0,   0,   0,   0,   3,   4,   0,   9,   1,   2, 1000, 1.072, 33.975, 225,  -1,   0,   0, -94, 574, 2031,   0,   0,   0,   0, 1200, 1200, 1207, 1202, -111792, ANGLE_MODE, SMALL_ANGLE, IDLE, 1, 1
221, 67633450,   2,   0,   1,   0,   0,   0,   4,   4,   0,   8,   1,   2, 1000, 1.072, 33.975, 225,  -1,   0,   0, -95, 573, 2031,   0,   0,   0,   0, 1200, 1200, 1207, 1203, -111792, ANGLE_MODE, SMALL_ANGLE, IDLE, 1, 1
222, 67634467,   2,   0,   2,   0,   0,   0,   3,   4,   0,   8,   1,   2, 1000, 1.072, 33.975, 225,   0,   0,  -1, -97, 573, 2030,   0,   0,   0,   0, 1200, 1200, 1206, 1203, -111792, ANGLE_MODE, SMALL_ANGLE, IDLE, 1, 1
223, 67635488,   1,   0,   2,   0,   0,   0,   1,   3,   0,   8,   1,   2, 1000, 1.072, 33.975, 225,   0,   0,  -1, -98, 573, 2030,   0,   0,   0,   0, 1201, 1200, 1203, 1202, -111792, ANGLE_MODE, SMALL_ANGLE, IDLE, 1, 1
224, 67636495,   1,   0,   4,   0,   0,   0,   0,   1,   0,   8,   1,   2, 1000, 1.072, 33.975, 225,   0,   0,  -1, -99, 573, 2030,   0,   0,   0,   0, 1204, 1200, 1200, 1202, -111792, ANGLE_MODE, SMALL_ANGLE, IDLE, 1, 1
225, 67637513,   0,   0,   6,   0,   0,   0,  -3,   0,   0,   8,   1,   2, 1000, 1.072, 33.975, 225,   1,   0,  -2, -100, 573, 2030,   0,   0,   0,   0, 1207, 1200, 1200, 1202, -111792, ANGLE_MODE, SMALL_ANGLE, IDLE, 1, 1
226, 67638522,   0,   0,   7,   0,   0,   0,  -5,   0,   0,   8,   1,   2, 1000, 1.072, 33.975, 225,   1,   0,  -3, -101, 574, 2030,   0,   0,   0,   0, 1209, 1200, 1200, 1202, -111792, ANGLE_MODE, SMALL_ANGLE, IDLE, 1, 1
227, 67639529,   0,   0,   7,   0,   0,   0,  -6,   0,   0,   8,   1,   2, 1000, 1.072, 33.975, 225,   1,   0,  -3, -102, 575, 2031,   0,   0,   0,   0, 1210, 1200, 1200, 1201, -111792, ANGLE_MODE, SMALL_ANGLE, IDLE, 1, 1
228, 67640537,   0,   0,   5,   0,   0,   0,  -7,   0,   0,   8,   1,   2, 1000, 1.072, 33.975, 225,   2,   0,  -2, -102, 575, 2030,   0,   0,   0,   0, 1209, 1201, 1200, 1200, -111792, ANGLE_MODE, SMALL_ANGLE, IDLE, 1, 1
229, 67641552,  -1,   0,   2,   0,   0,   0,  -7,   1,   0,   8,   1,   2, 1000, 1.072, 33.975, 225,   2,   0,  -1, -103, 576, 2030,   0,   0,   0,   0, 1209, 1203, 1200, 1200, -111792, ANGLE_MODE, SMALL_ANGLE, IDLE, 1, 1
230, 67642563,  -1,   0,  -1,   0,   0,   0,  -7,   1,   0,   8,   1,   2, 1000, 1.072, 33.975, 225,   2,   0,   1, -102, 576, 2030,   0,   0,   0,   0, 1207, 1206, 1200, 1200, -111792, ANGLE_MODE, SMALL_ANGLE, IDLE, 1, 1
231, 67643564,  -2,   0,  -4,   0,   0,   0,  -7,   1,   0,   8,   1,   2, 1000, 1.072, 33.975, 225,   3,   0,   2, -102, 577, 2029,   0,   0,   0,   0, 1205, 1209, 1200, 1200, -111792, ANGLE_MODE, SMALL_ANGLE, IDLE, 1, 1
232, 67644576,  -1,   0,  -6,   0,   0,   0,  -6,   0,   0,   8,   1,   2, 1000, 1.072, 33.975, 225,   2,   0,   3, -102, 577, 2029,   0,   0,   0,   0, 1202, 1210, 1200, 1200, -111792, ANGLE_MODE, SMALL_ANGLE, IDLE, 1, 1
233, 67645590,  -1,   0,  -7,   0,   0,   0,  -4,   0,   0,   8,   1,   2, 1000, 1.072, 33.975, 225,   2,   0,   3, -103, 576, 2029,   0,   0,   0,   0, 1200, 1209, 1202, 1200, -111792, ANGLE_MODE, SMALL_ANGLE, IDLE, 1, 1
234, 67646604,   0,   0,  -7,   0,   0,   0,  -1,   0,   0,   8,   1,   2, 1000, 1.072, 33.975, 225,   2,   0,   3, -103, 576, 2030,   0,   0,   0,   0, 1200, 1206, 1204, 1200, -111792, ANGLE_MODE, SMALL_ANGLE, IDLE, 1, 1
235, 67647604,   0,   0,  -6,   0,   0,   0,   1,   0,   0,   8,   1,   2, 1000, 1.072, 33.975, 225,   2,   0,   3, -103, 576, 2030,   0,   0,   0,   0, 1200, 1203, 1206, 1200, -111792, ANGLE_MODE, SMALL_ANGLE, IDLE, 1, 1
236, 67648609,   0,   1,  -3,   0,   0,   0,   3,   1,   0,   8,   1,   2, 1000, 1.072, 33.975, 225,   2,  -1,   1, -103, 575, 2030,   0,   0,   0,   0, 1200, 1200, 1206, 1200, -111792, ANGLE_MODE, SMALL_ANGLE, IDLE, 1, 1
237, 67649622,   0,   1,   0,   0,   0,   0,   3,   2,   0,   8,   1,   2, 1000, 1.072, 33.975, 225,   2,  -1,   1, -103, 575, 2030,   0,   0,   0,   0, 1200, 1200, 1205, 1200, -111792, ANGLE_MODE, SMALL_ANGLE, IDLE, 1, 1
238, 67650638,   0,   0,   0,   0,   0,   0,   2,   2,   0,   8,   1,   2, 1000, 1.072, 33.975, 225,   2,   0,   0, -104, 574, 2031,   0,   0,   0,   0, 1201, 1200, 1203, 1200, -111792, ANGLE_MODE, SMALL_ANGLE, IDLE, 1, 1
239, 67651647,   0,   0,   2,   0,   0,   0,   2,   1,   0,   8,   1,   2, 1000, 1.072, 33.975, 225,   1,   0,  -1, -105, 574, 2031,   0,   0,   0,   0, 1202, 1200, 1202, 1202, -111792, ANGLE_MODE, SMALL_ANGLE, IDLE, 1, 1
240, 67652655,   0,   0,   3,   0,   0,   0,   2,   0,   0,   8,   1,   2, 1000, 1.072, 33.975, 225,   1,   0,  -1, -105, 574, 2031,   0,   0,   0,   0, 1201, 1200, 1201, 1204, -111792, ANGLE_MODE, SMALL_ANGLE, IDLE, 1, 1
241, 67653665,   1,   0,   4,   0,   0,   0,   4,   0,   0,   9,   1,   2, 1000, 1.063, 35.250, 225,   0,   0,  -1, -106, 575, 2031,   0,   0,   0,   0, 1200, 1200, 1201, 1207, -111792, ANGLE_MODE, SMALL_ANGLE, IDLE, 1, 1
242, 67654678,   1,   1,   5,   0,   0,   0,   6,   0,   0,   9,   1,   2, 1000, 1.063, 35.250, 225,   0,  -1,  -2, -107, 575, 2031,   0,   0,   0,   0, 1200, 1200, 1202, 1209, -111792, ANGLE_MODE, SMALL_ANGLE, IDLE, 1, 1
243, 67655680,   1,   1,   4,   0,   0,   0,   6,   0,   0,   9,   1,   2, 1000, 1.063, 35.250, 225,   0,  -1,  -2, -107, 576, 2031,   0,   0,   0,   0, 1200, 1200, 1203, 1208, -111792, ANGLE_MODE, SMALL_ANGLE, IDLE, 1, 1
244, 67656695,   1,   1,   4,   0,   0,   0,   5,   1,   0,   9,   1,   2, 1000, 1.063, 35.250, 225,   0,  -1,  -1, -107, 577, 2030,   0,   0,   0,   0, 1200, 1200, 1204, 1206, -111792, ANGLE_MODE, SMALL_ANGLE, IDLE, 1, 1
245, 67657708,   0,   1,   1,   0,   0,   0,   2,   2,   0,   9,   1,   2, 1000, 1.063, 35.250, 225,   1,  -1,  -1, -107, 577, 2031,   0,   0,   0,   0, 1202, 1200, 1204, 1201, -111792, ANGLE_MODE, SMALL_ANGLE, IDLE, 1, 1
246, 67658724,   0,   1,   1,   0,   0,   0,   0,   2,   0,   9,   1,   2, 1000, 1.063, 35.250, 225,   1,  -1,   0, -107, 578, 2030,   0,   0,   0,   0, 1205, 1200, 1201, 1200, -111792, ANGLE_MODE, SMALL_ANGLE, IDLE, 1, 1
247, 67659739,   0,   1,   1,   0,   0,   0,  -4,   1,   0,   9,   1,   2, 1000, 1.063, 35.250, 225,   2,  -1,   0, -106, 578, 2030,   0,   0,   0,   0, 1206, 1200, 1200, 1200, -111792, ANGLE_MODE, SMALL_ANGLE, IDLE, 1, 1
248, 67660744,   0,   0,   0,   0,   0,   0,  -6,   0,   0,   9,   1,   2, 1000, 1.063, 35.250, 225,   2,  -1,   0, -106, 578, 2029,   0,   0,   0,   0, 1206, 1204, 1200, 1200, -111792, ANGLE_MODE, SMALL_ANGLE, IDLE, 1, 1
249, 67661760,  -1,   1,   0,   0,   0,   0,  -7,  -1,   0,   9,   1,   2, 1000, 1.063, 35.250, 225,   2,  -1,   0, -106, 577, 2029,   0,   0,   0,   0, 1205, 1206, 1200, 1200, -111792, ANGLE_MODE, SMALL_ANGLE, IDLE, 1, 1
250, 67662775,   0,   1,  -2,   0,   0,   0,  -6,  -1,   0,   9,   1,   2, 1000, 1.063, 35.250, 225,   2,  -1,   1, -105, 576, 2028,   0,   0,   0,   0, 1203, 1207, 1200, 1200, -111792, ANGLE_MODE, SMALL_ANGLE, IDLE, 1, 1
251, 67663784,   0,   1,  -4,   0,   0,   0,  -4,  -1,   0,   9,   1,   2, 1000, 1.063, 35.250, 225,   1,  -1,   2, -104, 576, 2028,   0,   0,   0,   0, 1200, 1207, 1200, 1200, -111792, ANGLE_MODE, SMALL_ANGLE, IDLE, 1, 1
252, 67664792,   0,   1,  -4,   0,   0,   0,   0,   0,   0,   9,   1,   2, 1000, 1.063, 35.250, 225,   1,  -1,   2, -104, 575, 2029,   0,   0,   0,   0, 1200, 1203, 1203, 1200, -111792, ANGLE_MODE, SMALL_ANGLE, IDLE, 1, 1
253, 67665797,   1,   0,  -4,   0,   0,   0,   3,   0,   0,   9,   1,   2, 1000, 1.063, 35.250, 225,   0,   0,   2, -104, 575, 2029,   0,   0,   0,   0, 1200, 1200, 1207, 1200, -111792, ANGLE_MODE, SMALL_ANGLE, IDLE, 1, 1
254, 67666804,   2,   0,  -4,   0,   0,   0,   7,   0,   0,   9,   1,   2, 1000, 1.063, 35.250, 225,   0,   0,   2, -104, 575, 2029,   0,   0,   0,   0, 1200, 1200, 1210, 1204, -111792, ANGLE_MODE, SMALL_ANGLE, IDLE, 1, 1
255, 67667816,   2,   0,  -2,   0,   0,   0,   9,  -1,   0,   9,   1,   2, 1000, 1.063, 35.250, 225,   0,   0,   1, -105, 575, 2028,   0,   0,   0,   0, 1200, 1200, 1210, 1207, -111792, ANGLE_MODE, SMALL_ANGLE, IDLE, 1, 1
256, 67668828,   2,   0,  -1,   0,   0,   0,   9,  -1,   0,   9,   1,   2, 1000, 1.063, 35.250, 225,  -1,   0,   1, -105, 576, 2028,   0,   0,   0,   0, 1200, 1200, 1209, 1208, -111792, ANGLE_MODE, SMALL_ANGLE, IDLE, 1, 1
257, 67669840,   2,   1,   0,   0,   0,   0,   8,  -1,   0,   9,   1,   2, 1000, 1.063, 35.250, 225,   0,  -1,   0, -106, 577, 2028,   0,   0,   0,   0, 1200, 1200, 1208, 1207, -111792, ANGLE_MODE, SMALL_ANGLE, IDLE, 1, 1
258, 67670857,   2,   1,   0,   0,   0,   0,   5,   0,   0,   9,   1,   2, 1000, 1.063, 35.250, 225,  -1,  -1,   0, -106, 578, 2028,   0,   0,   0,   0, 1200, 1200, 1207, 1206, -111792, ANGLE_MODE, SMALL_ANGLE, IDLE, 1, 1
259, 67671871,   3,   1,   1,   0,   0,   0,   3,   1,   0,   9,   1,   2, 1000, 1.063, 35.250, 225,  -1,  -1,   0, -107, 579, 2029,   0,   0,   0,   0, 1200, 1200, 1207, 1204, -111792, ANGLE_MODE, SMALL_ANGLE, IDLE, 1, 1
260, 67672882,   2,   1,   1,   0,   0,   0,   2,   3,   0,   9,   1,   2, 1000, 1.063, 35.250, 225,   0,  -1,  -1, -107, 580, 2028,   0,   0,   0,   0, 1201, 1200, 1206, 1201, -111792, ANGLE_MODE, SMALL_ANGLE, IDLE, 1, 1
261, 67673887,   2,   1,   3,   0,   0,   0,   0,   3,   0,   8,   1,   2, 1000, 1.063, 35.250, 225,   0,  -1,  -1, -107, 580, 2028,   0,   0,   0,   0, 1204, 1200, 1204, 1201, -111792, ANGLE_MODE, SMALL_ANGLE, IDLE, 1, 1
262, 67674903,   1,   1,   3,   0,   0,   0,   0,   3,   0,   8,   1,   2, 1000, 1.063, 35.250, 225,   0,  -1,  -1, -107, 580, 2028,   0,   0,   0,   0, 1205, 1200, 1202, 1200, -111792, ANGLE_MODE, SMALL_ANGLE, IDLE, 1, 1
263, 67675919,   1,   1,   3,   0,   0,   0,  -2,   2,   0,   8,   1,   2, 1000, 1.063, 35.250, 225,   0,  -1,  -1, -106, 579, 2029,   0,   0,   0,   0, 1206, 1200, 1200, 1200, -111792, ANGLE_MODE, SMALL_ANGLE, IDLE, 1, 1
264, 67676935,   0,   1,   0,   0,   0,   0,  -4,   0,   0,   7,   1,   2, 1000, 1.063, 35.250, 225,   1,  -1,   0, -105, 578, 2030,   0,   0,   0,   0, 1205, 1200, 1200, 1200, -111792, ANGLE_MODE, SMALL_ANGLE, IDLE, 1, 1
265, 67677950,   0,   1,  -2,   0,   0,   0,  -6,   0,   0,   7,   1,   2, 1000, 1.063, 35.250, 225,   1,  -1,   1, -104, 576, 2030,   0,   0,   0,   0, 1204, 1205, 1200, 1200, -111792, ANGLE_MODE, SMALL_ANGLE, IDLE, 1, 1
266, 67678965,   0,   1,  -2,   0,   0,   0,  -6,   0,   0,   7,   1,   2, 1000, 1.063, 35.250, 225,   1,  -1,   1, -104, 575, 2030,   0,   0,   0,   0, 1203, 1206, 1200, 1200, -111792, ANGLE_MODE, SMALL_ANGLE, IDLE, 1, 1
267, 67679972,   0,   1,  -3,   0,   0,   0,  -6,  -1,   0,   7,   1,   2, 1000, 1.063, 35.250, 225,   1,  -1,   1, -103, 575, 2030,   0,   0,   0,   0, 1202, 1207, 1200, 1200, -111792, ANGLE_MODE, SMALL_ANGLE, IDLE, 1, 1
