loopIteration, time (us), axisP[0], axisP[1], axisP[2], axisI[0], axisI[1], axisI[2], axisD[0], axisD[1], axisD[2], rcCommand[0], rcCommand[1], rcCommand[2], rcCommand[3], vbatLatest (V), amperageLatest (A), rssi, gyroADC[0], gyroADC[1], gyroADC[2], accSmooth[0], accSmooth[1], accSmooth[2], debug[0], debug[1], debug[2], debug[3], motor[0], motor[1], motor[2], motor[3], energyCumulative (mAh), flightModeFlags (flags), stateFlags (flags), failsafePhase (flags), rxSignalReceived, rxFlightChannelsValid
  0, 51908390,   0,   0,   0,   0,   0,   0,   2,   0,   0,   9,   2,   3, 1000, 1.081, 34.075, 225,   1,   0,   0, -237,  48, 2108,   0,   0,   0,   0, 1200, 1200, 1202, 1202, -73782, ANGLE_MODE, SMALL_ANGLE, IDLE, 1, 1
  1, 51909409,   0,   0,  -1,   0,   0,   0,   4,   0,   0,   9,   2,   3, 1000, 1.081, 34.075, 225,   1,   0,   1, -237,  47, 2108,   0,   0,   0,   0, 1200, 1200, 1205, 1202, -74236, ANGLE_MODE, SMALL_ANGLE, IDLE, 1, 1
  2, 51910417,   0,   0,  -3,   0,   0,   0,   4,   0,   0,   9,   2,   3, 1000, 1.081, 34.075, 225,   1,   0,   2, -238,  47, 2110,   0,   0,   0,   0, 1200, 1200, 1206, 1200, -74236, ANGLE_MODE, SMALL_ANGLE, IDLE, 1, 1
  3, 51911428,   0,   0,  -4,   0,   0,   0,   2,   1,   0,   9,   2,   3, 1000, 1.081, 34.075, 225,   1,   0,   2, -238,  47, 2111,   0,   0,   0,   0, 1200, 1200, 1206, 1200, -74236, ANGLE_MODE, SMALL_ANGLE, IDLE, 1, 1
  4, 51912444,   0,   0,  -5,   0,   0,   0,   0,   1,   0,   9,   2,   3, 1000, 1.081, 34.075, 225,   2,   0,   2, -239,  47, 2111,   0,   0,   0,   0, 1200, 1203, 1206, 1200, -74236, ANGLE_MODE, SMALL_ANGLE, IDLE, 1, 1
  5, 51913464,   0,   0,  -6,   0,   0,   0,  -1,   2,   0,   9,   2,   3, 1000, 1.081, 34.075, 225,   2,   0,   3, -239,  46, 2112,   0,   0,   0,   0, 1200, 1205, 1205, 1200, -74236, ANGLE_MODE, SMALL_ANGLE, IDLE, 1, 1
  6, 51914475,   0,   0,  -8,   0,   0,   0,  -2,   2,   0,   9,   2,   3, 1000, 1.081, 34.075, 225,   2,   0,   3, -239,  46, 2113,   0,   0,   0,   0, 1200, 1206, 1206, 1200, -74236, ANGLE_MODE, SMALL_ANGLE, IDLE, 1, 1
  7, 51915491,   0,   1,  -8,   0,   0,   0,  -2,   3,   0,   9,   2,   3, 1000, 1.081, 34.075, 225,   1,   0,   4, -240,  46, 2114,   0,   0,   0,   0, 1200, 1205, 1207, 1200, -74236, ANGLE_MODE, SMALL_ANGLE, IDLE, 1, 1
  8, 51916503,   0,   1,  -9,   0,   0,   0,  -1,   3,   0,   9,   2,   3, 1000, 1.081, 34.075, 225,   2,  -1,   4, -240,  46, 2115,   0,   0,   0,   0, 1200, 1205, 1209, 1200, -74236, ANGLE_MODE, SMALL_ANGLE, IDLE, 1, 1
  9, 51917510,   0,   1,  -9,   0,   0,   0,   0,   3,   0,   9,   2,   3, 1000, 1.081, 34.075, 225,   1,  -1,   4, -240,  46, 2116,   0,   0,   0,   0, 1200, 1204, 1210, 1200, -74236, ANGLE_MODE, SMALL_ANGLE, IDLE, 1, 1
 10, 51918517,   0,   1,  -9,   0,   0,   0,   0,   3,   0,   9,   2,   3, 1000, 1.081, 34.075, 225,   2,  -1,   4, -240,  46, 2117,   0,   0,   0,   0, 1200, 1204, 1210, 1200, -74236, ANGLE_MODE, SMALL_ANGLE, IDLE, 1, 1
 11, 51919534,   0,   1,  -9,   0,   0,   0,   0,   2,   0,   9,   2,   3, 1000, 1.081, 34.075, 225,   1,  -1,   4, -240,  46, 2118,   0,   0,   0,   0, 1200, 1204, 1210, 1200, -74236, ANGLE_MODE, SMALL_ANGLE, IDLE, 1, 1
 12, 51920547,   0,   1,  -9,   0,   0,   0,   0,   1,   0,   9,   2,   3, 1000, 1.081, 34.075, 225,   1,  -1,   4, -240,  47, 2118,   0,   0,   0,   0, 1200, 1205, 1210, 1200, -74236, ANGLE_MODE, SMALL_ANGLE, IDLE, 1, 1
 13, 51921555,   0,   1, -10,   0,   0,   0,   0,   1,   0,   9,   2,   3, 1000, 1.081, 34.075, 225,   2,  -1,   4, -240,  47, 2118,   0,   0,   0,   0, 1200, 1205, 1210, 1200, -74236, ANGLE_MODE, SMALL_ANGLE, IDLE, 1, 1
 14, 51922563,   0,   1,  -9,   0,   0,   0,   0,   1,   0,   9,   2,   3, 1000, 1.081, 34.075, 225,   1,  -1,   4, -240,  48, 2119,   0,   0,   0,   0, 1200, 1204, 1209, 1200, -74236, ANGLE_MODE, SMALL_ANGLE, IDLE, 1, 1
 15, 51923578,   0,   1,  -7,   0,   0,   0,   0,   1,   0,   9,   2,   3, 1000, 1.081, 34.075, 225,   1,  -1,   3, -240,  48, 2120,   0,   0,   0,   0, 1200, 1203, 1208, 1200, -74236, ANGLE_MODE, SMALL_ANGLE, IDLE, 1, 1
 16, 51924585,   0,   1,  -4,   0,   0,   0,   0,   0,   0,   9,   2,   3, 1000, 1.081, 34.075, 225,   2,  -1,   2, -240,  48, 2121,   0,   0,   0,   0, 1200, 1202, 1206, 1200, -74236, ANGLE_MODE, SMALL_ANGLE, IDLE, 1, 1
 17, 51925597,   0,   2,  -1,   0,   0,   0,   0,   0,   0,   9,   2,   3, 1000, 1.081, 34.075, 225,   2,  -1,   1, -240,  48, 2121,   0,   0,   0,   0, 1201, 1200, 1203, 1200, -74236, ANGLE_MODE, SMALL_ANGLE, IDLE, 1, 1
 18, 51926603,   0,   1,   1,   0,   0,   0,  -1,   0,   0,   9,   2,   3, 1000, 1.081, 34.075, 225,   2,  -1,   0, -240,  49, 2121,   0,   0,   0,   0, 1204, 1200, 1200, 1200, -74236, ANGLE_MODE, SMALL_ANGLE, IDLE, 1, 1
 19, 51927610,  -1,   1,   2,   0,   0,   0,  -2,   0,   0,   9,   1,   3, 1000, 1.081, 34.075, 225,   2,  -1,  -1, -240,  50, 2121,   0,   0,   0,   0, 1205, 1200, 1200, 1200, -74236, ANGLE_MODE, SMALL_ANGLE, IDLE, 1, 1
 20, 51928614,  -1,   1,   2,   0,   0,   0,  -3,   0,   0,   9,   1,   3, 1000, 1.081, 34.075, 225,   2,  -1,  -1, -240,  50, 2121,   0,   0,   0,   0, 1206, 1201, 1200, 1200, -74236, ANGLE_MODE, SMALL_ANGLE, IDLE, 1, 1
 21, 51929624,  -1,   1,   3,   0,   0,   0,  -3,  -1,   0,   9,   1,   3, 1000, 1.081, 34.075, 225,   2,  -1,  -1, -240,  51, 2121,   0,   0,   0,   0, 1206, 1202, 1200, 1200, -74236, ANGLE_MODE, SMALL_ANGLE, IDLE, 1, 1
 22, 51930640,  -1,   0,   3,   0,   0,   0,  -3,  -2,   0,   9,   1,   3, 1000, 1.081, 34.075, 225,   2,   0,  -1, -240,  51, 2121,   0,   0,   0,   0, 1205, 1202, 1200, 1200, -74236, ANGLE_MODE, SMALL_ANGLE, IDLE, 1, 1
 23, 51931645,  -1,   0,   4,   0,   0,   0,  -2,  -2,   0,   9,   1,   3, 1000, 1.081, 34.075, 225,   2,   0,  -1, -240,  52, 2121,   0,   0,   0,   0, 1204, 1202, 1200, 1202, -74236, ANGLE_MODE, SMALL_ANGLE, IDLE, 1, 1
 24, 51932656,  -1,   0,   4,   0,   0,   0,  -1,  -3,   0,   9,   1,   3, 1000, 1.081, 34.075, 225,   2,   0,  -2, -240,  53, 2120,   0,   0,   0,   0, 1203, 1200, 1200, 1204, -74236, ANGLE_MODE, SMALL_ANGLE, IDLE, 1, 1
 25, 51933668,   0,   0,   5,   0,   0,   0,   0,  -2,   0,   9,   1,   3, 1000, 1.081, 34.075, 225,   2,   0,  -2, -240,  53, 2119,   0,   0,   0,   0, 1203, 1200, 1200, 1206, -74236, ANGLE_MODE, SMALL_ANGLE, IDLE, 1, 1
 26, 51934685,   0,   0,   6,   0,   0,   0,   3,  -2,   0,   9,   1,   3, 1000, 1.081, 34.075, 225,   1,   0,  -2, -240,  53, 2118,   0,   0,   0,   0, 1201, 1200, 1200, 1208, -74236, ANGLE_MODE, SMALL_ANGLE, IDLE, 1, 1
 27, 51935690,   0,   0,   6,   0,   0,   0,   5,  -1,   0,   9,   1,   3, 1000, 1.081, 34.075, 225,   1,   0,  -2, -240,  54, 2118,   0,   0,   0,   0, 1200, 1200, 1200, 1210, -74236, ANGLE_MODE, SMALL_ANGLE, IDLE, 1, 1
 28, 51936704,   0,   0,   7,   0,   0,   0,   7,  -1,   0,   9,   1,   3, 1000, 1.081, 34.075, 225,   1,   0,  -2, -240,  54, 2117,   0,   0,   0,   0, 1200, 1200, 1200, 1212, -74236, ANGLE_MODE, SMALL_ANGLE, IDLE, 1, 1
 29, 51937722,   0,   0,   7,   0,   0,   0,   7,  -1,   0,   9,   1,   3, 1000, 1.081, 34.075, 225,   1,   0,  -2, -240,  55, 2116,   0,   0,   0,   0, 1200, 1200, 1200, 1212, -74236, ANGLE_MODE, SMALL_ANGLE, IDLE, 1, 1
 30, 51938739,   0,   0,   6,   0,   0,   0,   5,  -1,   0,   9,   1,   3, 1000, 1.081, 34.075, 225,   1,   0,  -2, -241,  55, 2115,   0,   0,   0,   0, 1200, 1200, 1200, 1210, -74236, ANGLE_MODE, SMALL_ANGLE, IDLE, 1, 1
 31, 51939757,   0,   0,   6,   0,   0,   0,   2,   0,   0,   9,   1,   3, 1000, 1.081, 34.075, 225,   1,   0,  -2, -241,  55, 2114,   0,   0,   0,   0, 1202, 1200, 1200, 1207, -74236, ANGLE_MODE, SMALL_ANGLE, IDLE, 1, 1
 32, 51940768,   0,   0,   3,   0,   0,   0,   0,   0,   0,   9,   1,   3, 1000, 1.081, 34.075, 225,   1,   0,  -1, -241,  55, 2113,   0,   0,   0,   0, 1203, 1200, 1200, 1203, -74236, ANGLE_MODE, SMALL_ANGLE, IDLE, 1, 1
 33, 51941778,   0,   1,   1,   0,   0,   0,   0,   2,   0,   9,   1,   3, 1000, 1.081, 34.075, 225,   1,  -1,   0, -241,  55, 2112,   0,   0,   0,   0, 1203, 1200, 1202, 1200, -74236, ANGLE_MODE, SMALL_ANGLE, IDLE, 1, 1
 34, 51942794,   0,   1,   0,   0,   0,   0,   0,   3,   0,   9,   1,   3, 1000, 1.081, 34.075, 225,   1,  -1,   0, -241,  55, 2111,   0,   0,   0,   0, 1203, 1200, 1204, 1200, -74236, ANGLE_MODE, SMALL_ANGLE, IDLE, 1, 1
 35, 51943806,   0,   1,  -2,   0,   0,   0,   0,   3,   0,   9,   1,   3, 1000, 1.081, 34.075, 225,   1,  -1,   1, -241,  54, 2110,   0,   0,   0,   0, 1202, 1200, 1205, 1200, -74236, ANGLE_MODE, SMALL_ANGLE, IDLE, 1, 1
 36, 51944822,   0,   1,  -2,   0,   0,   0,   0,   3,   0,   9,   1,   3, 1000, 1.081, 34.075, 225,   1,  -1,   1, -242,  54, 2110,   0,   0,   0,   0, 1202, 1200, 1206, 1200, -74236, ANGLE_MODE, SMALL_ANGLE, IDLE, 1, 1
 37, 51945835,   0,   1,  -3,   0,   0,   0,  -1,   3,   0,   9,   1,   3, 1000, 1.081, 34.075, 225,   1,  -1,   1, -243,  54, 2109,   0,   0,   0,   0, 1203, 1200, 1205, 1200, -74236, ANGLE_MODE, SMALL_ANGLE, IDLE, 1, 1
 38, 51946840,   0,   2,  -3,   0,   0,   0,  -2,   3,   0,   9,   1,   3, 1000, 1.081, 34.075, 225,   1,  -1,   1, -243,  54, 2108,   0,   0,   0,   0, 1203, 1200, 1204, 1200, -74236, ANGLE_MODE, SMALL_ANGLE, IDLE, 1, 1
 39, 51947848,   0,   2,  -3,   0,   0,   0,  -3,   2,   0,  10,   1,   3, 1000, 1.081, 34.075, 225,   2,  -1,   1, -243,  53, 2107,   0,   0,   0,   0, 1204, 1201, 1203, 1200, -74236, ANGLE_MODE, SMALL_ANGLE, IDLE, 1, 1
 40, 51948850,   0,   2,  -3,   0,   0,   0,  -3,   2,   0,  10,   1,   3, 1000, 1.081, 34.225, 225,   1,  -1,   2, -243,  53, 2107,   0,   0,   0,   0, 1203, 1202, 1203, 1200, -74236, ANGLE_MODE, SMALL_ANGLE, IDLE, 1, 1
 41, 51949867,   0,   1,  -3,   0,   0,   0,  -2,   1,   0,  10,   1,   3, 1000, 1.081, 34.225, 225,   2,  -1,   2, -243,  52, 2107,   0,   0,   0,   0, 1202, 1202, 1203, 1200, -74236, ANGLE_MODE, SMALL_ANGLE, IDLE, 1, 1
 42, 51950882,   0,   2,  -3,   0,   0,   0,  -1,   0,   0,  10,   1,   3, 1000, 1.081, 34.225, 225,   1,  -1,   2, -243,  51, 2106,   0,   0,   0,   0, 1200, 1202, 1203, 1200, -74236, ANGLE_MODE, SMALL_ANGLE, IDLE, 1, 1
 43, 51951888,   0,   2,  -4,   0,   0,   0,   0,   0,   0,  10,   1,   3, 1000, 1.081, 34.225, 225,   1,  -1,   2, -243,  51, 2106,   0,   0,   0,   0, 1200, 1202, 1205, 1200, -74236, ANGLE_MODE, SMALL_ANGLE, IDLE, 1, 1
 44, 51952901,   0,   2,  -6,   0,   0,   0,   0,   0,   0,  10,   1,   3, 1000, 1.081, 34.225, 225,   2,  -1,   3, -243,  51, 2106,   0,   0,   0,   0, 1200, 1203, 1207, 1200, -74236, ANGLE_MODE, SMALL_ANGLE, IDLE, 1, 1
 45, 51953912,   0,   2,  -8,   0,   0,   0,   0,   0,   0,  10,   1,   3, 1000, 1.081, 34.225, 225,   2,  -2,   3, -242,  50, 2106,   0,   0,   0,   0, 1200, 1204, 1208, 1200, -74236, ANGLE_MODE, SMALL_ANGLE, IDLE, 1, 1
 46, 51954922,   0,   2, -10,   0,   0,   0,   0,   1,   0,  10,   1,   3, 1000, 1.081, 34.225, 225,   2,  -1,   4, -242,  50, 2107,   0,   0,   0,   0, 1200, 1205, 1209, 1200, -74236, ANGLE_MODE, SMALL_ANGLE, IDLE, 1, 1
 47, 51955932,   0,   2, -10,   0,   0,   0,   0,   0,   0,  10,   1,   3, 1000, 1.081, 34.225, 225,   2,  -1,   4, -241,  50, 2107,   0,   0,   0,   0, 1200, 1206, 1209, 1200, -74236, ANGLE_MODE, SMALL_ANGLE, IDLE, 1, 1
 48, 51956946,   0,   1,  -9,   0,   0,   0,   0,   0,   0,  10,   1,   3, 1000, 1.081, 34.225, 225,   1,  -1,   4, -240,  50, 2107,   0,   0,   0,   0, 1200, 1206, 1208, 1200, -74236, ANGLE_MODE, SMALL_ANGLE, IDLE, 1, 1
 49, 51957953,   0,   2,  -7,   0,   0,   0,   0,   0,   0,  10,   1,   3, 1000, 1.081, 34.225, 225,   1,  -1,   3, -239,  50, 2107,   0,   0,   0,   0, 1200, 1204, 1207, 1200, -74236, ANGLE_MODE, SMALL_ANGLE, IDLE, 1, 1
 50, 51958953,   0,   1,  -5,   0,   0,   0,   1,  -1,   0,  10,   1,   3, 1000, 1.081, 34.225, 225,   1,  -1,   2, -239,  50, 2108,   0,   0,   0,   0, 1200, 1202, 1206, 1200, -74236, ANGLE_MODE, SMALL_ANGLE, IDLE, 1, 1
 51, 51959964,   0,   1,  -4,   0,   0,   0,   2,  -1,   0,  10,   1,   3, 1000, 1.081, 34.225, 225,   1,  -1,   2, -238,  51, 2109,   0,   0,   0,   0, 1200, 1201, 1205, 1200, -74236, ANGLE_MODE, SMALL_ANGLE, IDLE, 1, 1
 52, 51960978,   0,   1,  -3,   0,   0,   0,   1,  -2,   0,  10,   1,   3, 1000, 1.081, 34.225, 225,   1,  -1,   2, -237,  51, 2110,   0,   0,   0,   0, 1200, 1202, 1203, 1200, -74236, ANGLE_MODE, SMALL_ANGLE, IDLE, 1, 1
 53, 51961978,   0,   1,  -3,   0,   0,   0,   0,  -2,   0,  10,   1,   3, 1000, 1.081, 34.225, 225,   2,  -1,   2, -236,  51, 2111,   0,   0,   0,   0, 1200, 1204, 1202, 1200, -74236, ANGLE_MODE, SMALL_ANGLE, IDLE, 1, 1
 54, 51962990,   0,   0,  -3,   0,   0,   0,  -1,  -2,   0,  10,   1,   3, 1000, 1.081, 34.225, 225,   2,   0,   2, -236,  52, 2112,   0,   0,   0,   0, 1200, 1205, 1200, 1200, -74236, ANGLE_MODE, SMALL_ANGLE, IDLE, 1, 1
 55, 51964008,   0,   0,  -3,   0,   0,   0,  -1,  -3,   0,  10,   1,   3, 1000, 1.081, 34.225, 225,   2,   0,   1, -236,  52, 2112,   0,   0,   0,   0, 1200, 1206, 1200, 1200, -74236, ANGLE_MODE, SMALL_ANGLE, IDLE, 1, 1
 56, 51965017,   0,   0,  -3,   0,   0,   0,  -1,  -3,   0,  10,   1,   3, 1000, 1.081, 34.225, 225,   1,   0,   2, -236,  53, 2112,   0,   0,   0,   0, 1200, 1205, 1200, 1200, -74236, ANGLE_MODE, SMALL_ANGLE, IDLE, 1, 1
 57, 51966033,   0,   0,  -2,   0,   0,   0,   0,  -3,   0,  10,   1,   3, 1000, 1.081, 34.225, 225,   1,   0,   1, -236,  53, 2113,   0,   0,   0,   0, 1200, 1204, 1200, 1200, -74236, ANGLE_MODE, SMALL_ANGLE, IDLE, 1, 1
 58, 51967041,   0,   0,  -1,   0,   0,   0,   1,  -3,   0,  10,   1,   3, 1000, 1.081, 34.225, 225,   1,   0,   1, -236,  53, 2114,   0,   0,   0,   0, 1200, 1203, 1201, 1202, -74236, ANGLE_MODE, SMALL_ANGLE, IDLE, 1, 1
 59, 51968100,   0,   0,   0,   0,   0,   0,   2,  -3,   0,   9,   1,   3, 1000, 1.081, 34.225, 225,   1,   0,   1, -237,  53, 2115,   0,   0,   0,   0, 1200, 1201, 1200, 1204, -74236, ANGLE_MODE, SMALL_ANGLE, IDLE, 1, 1
 60, 51969110,   0,   0,   0,   0,   0,   0,   2,  -3,   0,   9,   1,   3, 1000, 1.081, 34.225, 225,   1,   0,   0, -238,  53, 2115,   0,   0,   0,   0, 1200, 1200, 1200, 1206, -74236, ANGLE_MODE, SMALL_ANGLE, IDLE, 1, 1
 61, 51970121,   1,   0,   0,   0,   0,   0,   2,  -3,   0,   9,   1,   3, 1000, 1.081, 34.225, 225,   1,   1,   0, -238,  53, 2116,   0,   0,   0,   0, 1200, 1200, 1200, 1206, -74236, ANGLE_MODE, SMALL_ANGLE, IDLE, 1, 1
 62, 51971135,   1,   0,   0,   0,   0,   0,   2,  -2,   0,   9,   1,   3, 1000, 1.081, 34.225, 225,   0,   1,   0, -239,  53, 2117,   0,   0,   0,   0, 1200, 1200, 1200, 1206, -74236, ANGLE_MODE, SMALL_ANGLE, IDLE, 1, 1
 63, 51972149,   1,   0,  -1,   0,   0,   0,   3,  -1,   0,   9,   1,   3, 1000, 1.081, 34.225, 225,   0,   1,   1, -239,  53, 2116,   0,   0,   0,   0, 1200, 1200, 1203, 1204, -74236, ANGLE_MODE, SMALL_ANGLE, IDLE, 1, 1
 64, 51973165,   2,   0,  -4,   0,   0,   0,   4,  -1,   0,   9,   1,   3, 1000, 1.081, 34.225, 225,   0,   1,   2, -239,  53, 2116,   0,   0,   0,   0, 1200, 1200, 1207, 1203, -74236, ANGLE_MODE, SMALL_ANGLE, IDLE, 1, 1
 65, 51974184,   1,   0,  -6,   0,   0,   0,   4,   0,   0,   9,   1,   3, 1000, 1.081, 34.225, 225,   0,   0,   3, -239,  53, 2117,   0,   0,   0,   0, 1200, 1200, 1209, 1200, -74236, ANGLE_MODE, SMALL_ANGLE, IDLE, 1, 1
 66, 51975194,   1,   0,  -8,   0,   0,   0,   3,   1,   0,   9,   1,   3, 1000, 1.081, 34.225, 225,   0,   0,   3, -239,  53, 2118,   0,   0,   0,   0, 1200, 1201, 1211, 1200, -74236, ANGLE_MODE, SMALL_ANGLE, IDLE, 1, 1
 67, 51976199,   2,   0,  -7,   0,   0,   0,   2,   2,   0,   9,   1,   3, 1000, 1.081, 34.225, 225,   0,   0,   3, -238,  53, 2119,   0,   0,   0,   0, 1200, 1200, 1211, 1200, -74236, ANGLE_MODE, SMALL_ANGLE, IDLE, 1, 1
 68, 51977204,   1,   0,  -8,   0,   0,   0,   0,   4,   0,   9,   1,   3, 1000, 1.081, 34.225, 225,   0,   0,   3, -237,  53, 2120,   0,   0,   0,   0, 1200, 1201, 1211, 1200, -74236, ANGLE_MODE, SMALL_ANGLE, IDLE, 1, 1
 69, 51978210,   1,   1,  -9,   0,   0,   0,  -1,   4,   0,   9,   1,   3, 1000, 1.081, 34.225, 225,   1,  -1,   4, -235,  54, 2120,   0,   0,   0,   0, 1200, 1203, 1211, 1200, -74236, ANGLE_MODE, SMALL_ANGLE, IDLE, 1, 1
 70, 51979214,   1,   1, -10,   0,   0,   0,  -2,   4,   0,   9,   1,   3, 1000, 1.081, 34.225, 225,   1,  -1,   4, -234,  54, 2120,   0,   0,   0,   0, 1200, 1204, 1211, 1200, -74236, ANGLE_MODE, SMALL_ANGLE, IDLE, 1, 1
 71, 51980231,   0,   1,  -9,   0,   0,   0,  -3,   3,   0,   9,   1,   3, 1000, 1.081, 34.225, 225,   1,  -1,   4, -233,  54, 2120,   0,   0,   0,   0, 1200, 1205, 1208, 1200, -74236, ANGLE_MODE, SMALL_ANGLE, IDLE, 1, 1
 72, 51981239,   0,   1,  -6,   0,   0,   0,  -4,   3,   0,   9,   1,   3, 1000, 1.081, 34.225, 225,   1,  -1,   3, -231,  55, 2120,   0,   0,   0,   0, 1201, 1204, 1205, 1200, -74236, ANGLE_MODE, SMALL_ANGLE, IDLE, 1, 1
 73, 51982251,   0,   1,  -3,   0,   0,   0,  -4,   2,   0,   9,   1,   3, 1000, 1.081, 34.225, 225,   1,  -1,   2, -230,  56, 2120,   0,   0,   0,   0, 1204, 1203, 1202, 1200, -74236, ANGLE_MODE, SMALL_ANGLE, IDLE, 1, 1
 74, 51983267,  -1,   1,   0,   0,   0,   0,  -5,   1,   0,   9,   1,   3, 1000, 1.081, 34.225, 225,   2,  -1,   1, -228,  57, 2121,   0,   0,   0,   0, 1206, 1203, 1200, 1200, -74236, ANGLE_MODE, SMALL_ANGLE, IDLE, 1, 1
 75, 51984281,  -1,   1,   0,   0,   0,   0,  -6,   1,   0,   9,   1,   3, 1000, 1.081, 34.225, 225,   2,  -1,   1, -227,  58, 2121,   0,   0,   0,   0, 1207, 1204, 1200, 1200, -74236, ANGLE_MODE, SMALL_ANGLE, IDLE, 1, 1
 76, 51985293,  -2,   1,  -1,   0,   0,   0,  -7,   0,   0,   9,   1,   3, 1000, 1.081, 34.225, 225,   3,  -1,   1, -226,  59, 2120,   0,   0,   0,   0, 1206, 1207, 1200, 1200, -74236, ANGLE_MODE, SMALL_ANGLE, IDLE, 1, 1
 77, 51986314,  -2,   0,  -3,   0,   0,   0,  -8,   0,   0,   9,   1,   3, 1000, 1.081, 34.225, 225,   3,   0,   2, -226,  60, 2119,   0,   0,   0,   0, 1204, 1210, 1200, 1200, -74236, ANGLE_MODE, SMALL_ANGLE, IDLE, 1, 1
 78, 51987319,  -2,   0,  -5,   0,   0,   0,  -7,  -2,   0,   9,   1,   3, 1000, 1.081, 34.225, 225,   3,   0,   2, -225,  61, 2119,   0,   0,   0,   0, 1201, 1213, 1200, 1200, -74236, ANGLE_MODE, SMALL_ANGLE, IDLE, 1, 1
 79, 51988320,  -1,   0,  -6,   0,   0,   0,  -4,  -4,   0,   9,   2,   1, 1000, 1.081, 34.225, 225,   2,   0,   3, -225,  62, 2119,   0,   0,   0,   0, 1200, 1212, 1200, 1200, -74236, ANGLE_MODE, SMALL_ANGLE, IDLE, 1, 1
 80, 51989331,  -1,   0,  -6,   0,   0,   0,  -1,  -4,   0,   9,   2,   1, 1000, 1.081, 34.450, 225,   2,   0,   3, -226,  63, 2119,   0,   0,   0,   0, 1200, 1210, 1200, 1200, -74236, ANGLE_MODE, SMALL_ANGLE, IDLE, 1, 1
 81, 51990348,   0,   0,  -5,   0,   0,   0,   2,  -5,   0,   9,   2,   1, 1000, 1.081, 34.450, 225,   2,   1,   2, -226,  63, 2119,   0,   0,   0,   0, 1200, 1207, 1201, 1201, -74236, ANGLE_MODE, SMALL_ANGLE, IDLE, 1, 1
 82, 51991353,  -1,   0,  -5,   0,   0,   0,   4,  -4,   0,   9,   2,   1, 1000, 1.081, 34.450, 225,   2,   1,   2, -227,  64, 2118,   0,   0,   0,   0, 1200, 1205, 1202, 1203, -74236, ANGLE_MODE, SMALL_ANGLE, IDLE, 1, 1
 83, 51992359,  -1,  -1,  -4,   0,   0,   0,   4,  -4,   0,   9,   2,   1, 1000, 1.081, 34.450, 225,   2,   1,   2, -228,  65, 2118,   0,   0,   0,   0, 1200, 1205, 1202, 1203, -74236, ANGLE_MODE, SMALL_ANGLE, IDLE, 1, 1
 84, 51993373,  -1,  -1,  -3,   0,   0,   0,   3,  -4,   0,   9,   2,   1, 1000, 1.081, 34.450, 225,   2,   2,   1, -229,  66, 2117,   0,   0,   0,   0, 1200, 1206, 1200, 1204, -74236, ANGLE_MODE, SMALL_ANGLE, IDLE, 1, 1
 85, 51994376,   0,  -1,  -3,   0,   0,   0,   1,  -4,   0,   9,   2,   1, 1000, 1.081, 34.450, 225,   2,   2,   2, -229,  66, 2117,   0,   0,   0,   0, 1200, 1207, 1200, 1203, -74236, ANGLE_MODE, SMALL_ANGLE, IDLE, 1, 1
 86, 51995388,   0,  -1,  -2,   0,   0,   0,   0,  -4,   0,   9,   2,   1, 1000, 1.081, 34.450, 225,   2,   2,   1, -230,  66, 2117,   0,   0,   0,   0, 1200, 1207, 1200, 1203, -74236, ANGLE_MODE, SMALL_ANGLE, IDLE, 1, 1
 87, 51996396,   0,  -2,  -1,   0,   0,   0,   1,  -4,   0,   9,   2,   1, 1000, 1.081, 34.450, 225,   2,   2,   1, -230,  66, 2117,   0,   0,   0,   0, 1200, 1206, 1200, 1203, -74236, ANGLE_MODE, SMALL_ANGLE, IDLE, 1, 1
 88, 51997406,   0,  -2,  -1,   0,   0,   0,   1,  -3,   0,   9,   2,   1, 1000, 1.081, 34.450, 225,   1,   2,   1, -229,  66, 2117,   0,   0,   0,   0, 1200, 1204, 1200, 1203, -74236, ANGLE_MODE, SMALL_ANGLE, IDLE, 1, 1
 89, 51998420,   0,  -1,   0,   0,   0,   0,   2,  -1,   0,   9,   2,   1, 1000, 1.081, 34.450, 225,   1,   1,   0, -229,  66, 2116,   0,   0,   0,   0, 1200, 1201, 1200, 1204, -74236, ANGLE_MODE, SMALL_ANGLE, IDLE, 1, 1
 90, 51999435,   0,  -1,   1,   0,   0,   0,   2,   0,   0,   9,   2,   1, 1000, 1.081, 34.450, 225,   1,   1,   0, -228,  67, 2116,   0,   0,   0,   0, 1200, 1200, 1200, 1204, -74236, ANGLE_MODE, SMALL_ANGLE, IDLE, 1, 1
 91, 52000451,   0,  -1,   2,   0,   0,   0,   2,   0,   0,   9,   2,   1, 1000, 1.081, 34.450, 225,   1,   2,  -1, -227,  66, 2115,   0,   0,   0,   0, 1200, 1200, 1200, 1204, -74236, ANGLE_MODE, SMALL_ANGLE, IDLE, 1, 1
 92, 52001461,   0,  -1,   4,   0,   0,   0,   2,   1,   0,   9,   2,   1, 1000, 1.081, 34.450, 225,   1,   1,  -2, -225,  66, 2115,   0,   0,   0,   0, 1201, 1200, 1200, 1205, -74236, ANGLE_MODE, SMALL_ANGLE, IDLE, 1, 1
 93, 52002466,   0,  -1,   6,   0,   0,   0,   2,   1,   0,   9,   2,   1, 1000, 1.081, 34.450, 225,   1,   1,  -2, -223,  66, 2115,   0,   0,   0,   0, 1203, 1200, 1200, 1206, -74236, ANGLE_MODE, SMALL_ANGLE, IDLE, 1, 1
 94, 52003473,   0,   0,   7,   0,   0,   0,   1,   2,   0,   9,   2,   1, 1000, 1.081, 34.450, 225,   2,   1,  -3, -221,  66, 2115,   0,   0,   0,   0, 1205, 1200, 1200, 1205, -74236, ANGLE_MODE, SMALL_ANGLE, IDLE, 1, 1
 95, 52004475,   0,   0,   8,   0,   0,   0,   0,   2,   0,   9,   2,   1, 1000, 1.081, 34.450, 225,   2,   1,  -3, -219,  66, 2115,   0,   0,   0,   0, 1208, 1200, 1200, 1204, -74236, ANGLE_MODE, SMALL_ANGLE, IDLE, 1, 1
 96, 52005486,   0,   0,   8,   0,   0,   0,  -1,   3,   0,   9,   2,   1, 1000, 1.081, 34.450, 225,   2,   1,  -3, -218,  66, 2115,   0,   0,   0,   0, 1210, 1200, 1200, 1202, -74236, ANGLE_MODE, SMALL_ANGLE, IDLE, 1, 1
 97, 52006488,   0,   0,   6,   0,   0,   0,  -2,   3,   0,   9,   2,   1, 1000, 1.081, 34.450, 225,   1,   1,  -2, -216,  66, 2115,   0,   0,   0,   0, 1209, 1200, 1200, 1201, -74236, ANGLE_MODE, SMALL_ANGLE, IDLE, 1, 1
 98, 52007499,   0,   0,   6,   0,   0,   0,  -1,   2,   0,   9,   2,   1, 1000, 1.081, 34.450, 225,   1,   1,  -2, -215,  66, 2115,   0,   0,   0,   0, 1207, 1200, 1200, 1202, -74237, ANGLE_MODE, SMALL_ANGLE, IDLE, 1, 1
 99, 52008503,   1,  -1,   6,   0,   0,   0,   0,   1,   0,   9,   1,   0, 1000, 1.081, 34.450, 225,   1,   1,  -2, -215,  65, 2115,   0,   0,   0,   0, 1204, 1200, 1200, 1206, -74237, ANGLE_MODE, SMALL_ANGLE, IDLE, 1, 1
100, 52009519,   1,  -1,   6,   0,   0,   0,   3,   0,   0,   9,   1,   0, 1000, 1.081, 34.450, 225,   0,   1,  -2, -215,  65, 2115,   0,   0,   0,   0, 1200, 1200, 1200, 1209, -74237, ANGLE_MODE, SMALL_ANGLE, IDLE, 1, 1
101, 52010521,   1,  -2,   6,   0,   0,   0,   5,  -2,   0,   9,   1,   0, 1000, 1.081, 34.450, 225,   0,   2,  -2, -216,  65, 2117,   0,   0,   0,   0, 1200, 1200, 1200, 1212, -74237, ANGLE_MODE, SMALL_ANGLE, IDLE, 1, 1
102, 52011528,   0,  -2,   7,   0,   0,   0,   5,  -4,   0,   9,   1,   0, 1000, 1.081, 34.450, 225,   1,   2,  -3, -217,  66, 2117,   0,   0,   0,   0, 1200, 1200, 1200, 1214, -74237, ANGLE_MODE, SMALL_ANGLE, IDLE, 1, 1
103, 52012536,   0,  -3,   6,   0,   0,   0,   3,  -6,   0,   9,   1,   0, 1000, 1.081, 34.450, 225,   1,   2,  -2, -218,  66, 2117,   0,   0,   0,   0, 1200, 1200, 1200, 1214, -74237, ANGLE_MODE, SMALL_ANGLE, IDLE, 1, 1
104, 52013546,   0,  -3,   5,   0,   0,   0,   0,  -6,   0,   9,   1,   0, 1000, 1.081, 34.450, 225,   1,   2,  -2, -220,  67, 2117,   0,   0,   0,   0, 1200, 1202, 1200, 1212, -74237, ANGLE_MODE, SMALL_ANGLE, IDLE, 1, 1
105, 52014548,   0,  -3,   6,   0,   0,   0,  -1,  -7,   0,   9,   1,   0, 1000, 1.081, 34.450, 225,   1,   3,  -2, -222,  67, 2118,   0,   0,   0,   0, 1200, 1204, 1200, 1212, -74237, ANGLE_MODE, SMALL_ANGLE, IDLE, 1, 1
106, 52015562,   0,  -3,   4,   0,   0,   0,  -1,  -6,   0,   9,   1,   0, 1000, 1.081, 34.450, 225,   1,   3,  -2, -223,  67, 2119,   0,   0,   0,   0, 1200, 1205, 1200, 1210, -74237, ANGLE_MODE, SMALL_ANGLE, IDLE, 1, 1
107, 52016570,   0,  -3,   3,   0,   0,   0,  -1,  -4,   0,   9,   1,   0, 1000, 1.081, 34.450, 225,   1,   3,  -1, -225,  67, 2120,   0,   0,   0,   0, 1200, 1204, 1200, 1208, -74237, ANGLE_MODE, SMALL_ANGLE, IDLE, 1, 1
108, 52017579,   0,  -3,   1,   0,   0,   0,  -1,  -2,   0,   9,   1,   0, 1000, 1.081, 34.450, 225,   1,   2,   0, -226,  67, 2120,   0,   0,   0,   0, 1200, 1204, 1200, 1205, -74237, ANGLE_MODE, SMALL_ANGLE, IDLE, 1, 1
109, 52018581,   0,  -3,   0,   0,   0,   0,   0,   0,   0,   9,   1,   0, 1000, 1.081, 34.450, 225,   1,   2,   0, -227,  68, 2121,   0,   0,   0,   0, 1200, 1203, 1200, 1203, -74237, ANGLE_MODE, SMALL_ANGLE, IDLE, 1, 1
110, 52019590,   1,  -3,   0,   0,   0,   0,   0,   0,   0,   9,   1,   0, 1000, 1.081, 34.450, 225,   1,   2,   0, -228,  68, 2121,   0,   0,   0,   0, 1200, 1202, 1200, 1202, -74237, ANGLE_MODE, SMALL_ANGLE, IDLE, 1, 1
111, 52020606,   1,  -3,  -1,   0,   0,   0,   1,   1,   0,   9,   1,   0, 1000, 1.081, 34.450, 225,   0,   2,   1, -228,  68, 2120,   0,   0,   0,   0, 1200, 1200, 1202, 1202, -74237, ANGLE_MODE, SMALL_ANGLE, IDLE, 1, 1
112, 52021619,   2,  -2,  -2,   0,   0,   0,   3,   2,   0,   9,   1,   0, 1000, 1.081, 34.450, 225,   0,   2,   1, -227,  68, 2121,   0,   0,   0,   0, 1200, 1200, 1205, 1203, -74237, ANGLE_MODE, SMALL_ANGLE, IDLE, 1, 1
113, 52022629,   3,  -2,  -2,   0,   0,   0,   6,   3,   0,   9,   1,   0, 1000, 1.081, 34.450, 225,  -1,   2,   1, -226,  69, 2121,   0,   0,   0,   0, 1200, 1200, 1209, 1205, -74237, ANGLE_MODE, SMALL_ANGLE, IDLE, 1, 1
114, 52023639,   3,  -1,  -3,   0,   0,   0,   7,   4,   0,   9,   1,   0, 1000, 1.081, 34.450, 225,  -1,   1,   1, -225,  69, 2120,   0,   0,   0,   0, 1200, 1200, 1211, 1204, -74237, ANGLE_MODE, SMALL_ANGLE, IDLE, 1, 1
115, 52024648,   2,  -1,  -2,   0,   0,   0,   7,   4,   0,   9,   1,   0, 1000, 1.081, 34.450, 225,  -1,   1,   1, -223,  69, 2120,   0,   0,   0,   0, 1200, 1200, 1211, 1204, -74237, ANGLE_MODE, SMALL_ANGLE, IDLE, 1, 1
116, 52025659,   2,  -1,  -1,   0,   0,   0,   5,   5,   0,   9,   1,   0, 1000, 1.081, 34.450, 225,   0,   1,   0, -222,  69, 2120,   0,   0,   0,   0, 1200, 1200, 1209, 1202, -74237, ANGLE_MODE, SMALL_ANGLE, IDLE, 1, 1
117, 52026665,   1,  -1,   0,   0,   0,   0,   1,   4,   0,   9,   1,   0, 1000, 1.081, 34.450, 225,   0,   1,   0, -221,  69, 2119,   0,   0,   0,   0, 1201, 1200, 1203, 1201, -74237, ANGLE_MODE, SMALL_ANGLE, IDLE, 1, 1
118, 52027671,   0,  -1,   2,   0,   0,   0,  -3,   3,   0,   9,   1,   0, 1000, 1.081, 34.450, 225,   1,   1,  -1, -220,  68, 2118,   0,   0,   0,   0, 1205, 1200, 1200, 1200, -74237, ANGLE_MODE, SMALL_ANGLE, IDLE, 1, 1
119, 52028673,   0,  -1,   1,   0,   0,   0,  -7,   2,   0,   9,   1,  -1, 1000, 1.081, 34.450, 225,   1,   1,  -1, -220,  67, 2118,   0,   0,   0,   0, 1207, 1203, 1200, 1200, -74237, ANGLE_MODE, SMALL_ANGLE, IDLE, 1, 1
120, 52029682,   0,  -1,   0,   0,   0,   0,  -9,   1,   0,   9,   1,  -1, 1000, 1.081, 34.025, 225,   1,   1,   0, -221,  67, 2117,   0,   0,   0,   0, 1206, 1207, 1200, 1200, -74237, ANGLE_MODE, SMALL_ANGLE, IDLE, 1, 1
121, 52030700,   0,  -1,  -1,   0,   0,   0,  -9,   0,   0,   9,   1,  -1, 1000, 1.081, 34.025, 225,   1,   1,   1, -222,  67, 2117,   0,   0,   0,   0, 1204, 1209, 1200, 1200, -74237, ANGLE_MODE, SMALL_ANGLE, IDLE, 1, 1
122, 52031706,   0,  -2,  -3,   0,   0,   0,  -7,  -1,   0,   9,   1,  -1, 1000, 1.081, 34.025, 225,   1,   2,   1, -223,  67, 2116,   0,   0,   0,   0, 1200, 1210, 1200, 1200, -74237, ANGLE_MODE, SMALL_ANGLE, IDLE, 1, 1
123, 52032715,   0,  -2,  -2,   0,   0,   0,  -3,  -3,   0,   9,   1,  -1, 1000, 1.081, 34.025, 225,   1,   2,   1, -225,  66, 2115,   0,   0,   0,   0, 1200, 1208, 1200, 1200, -74237, ANGLE_MODE, SMALL_ANGLE, IDLE, 1, 1
124, 52033725,   1,  -2,   0,   0,   0,   0,   0,  -4,   0,   9,   1,  -1, 1000, 1.081, 34.025, 225,   0,   2,   0, -227,  65, 2115,   0,   0,   0,   0, 1200, 1204, 1200, 1206, -74237, ANGLE_MODE, SMALL_ANGLE, IDLE, 1, 1
125, 52034738,   1,  -3,   1,   0,   0,   0,   4,  -4,   0,   9,   1,  -1, 1000, 1.081, 34.025, 225,   0,   2,  -1, -229,  65, 2116,   0,   0,   0,   0, 1200, 1200, 1200, 1211, -74237, ANGLE_MODE, SMALL_ANGLE, IDLE, 1, 1
126, 52035741,   1,  -3,   1,   0,   0,   0,   6,  -4,   0,   9,   1,  -1, 1000, 1.081, 34.025, 225,   0,   3,  -1, -232,  64, 2115,   0,   0,   0,   0, 1200, 1200, 1200, 1213, -74237, ANGLE_MODE, SMALL_ANGLE, IDLE, 1, 1
127, 52036741,   2,  -3,   0,   0,   0,   0,   6,  -4,   0,   9,   1,  -1, 1000, 1.081, 34.025, 225,   0,   3,   0, -233,  64, 2114,   0,   0,   0,   0, 1200, 1200, 1200, 1213, -74237, ANGLE_MODE, SMALL_ANGLE, IDLE, 1, 1
128, 52037749,   2,  -3,   0,   0,   0,   0,   5,  -4,   0,   9,   1,  -1, 1000, 1.081, 34.025, 225,   0,   3,   0, -234,  64, 2114,   0,   0,   0,   0, 1200, 1200, 1200, 1212, -74237, ANGLE_MODE, SMALL_ANGLE, IDLE, 1, 1
129, 52038766,   2,  -4,   0,   0,   0,   0,   5,  -3,   0,   9,   1,  -1, 1000, 1.081, 34.025, 225,  -1,   3,   0, -236,  63, 2114,   0,   0,   0,   0, 1200, 1201, 1201, 1211, -74237, ANGLE_MODE, SMALL_ANGLE, IDLE, 1, 1
130, 52039783,   3,  -3,  -2,   0,   0,   0,   4,  -2,   0,   9,   1,  -1, 1000, 1.081, 34.025, 225,  -1,   3,   1, -236,  63, 2113,   0,   0,   0,   0, 1200, 1201, 1203, 1209, -74237, ANGLE_MODE, SMALL_ANGLE, IDLE, 1, 1
131, 52040796,   3,  -2,  -2,   0,   0,   0,   4,   0,   0,   9,   1,  -1, 1000, 1.081, 34.025, 225,  -1,   2,   1, -236,  62, 2114,   0,   0,   0,   0, 1200, 1200, 1205, 1207, -74237, ANGLE_MODE, SMALL_ANGLE, IDLE, 1, 1
132, 52041812,   3,  -2,  -2,   0,   0,   0,   4,   1,   0,   9,   1,  -1, 1000, 1.081, 34.025, 225,  -1,   2,   1, -235,  63, 2114,   0,   0,   0,   0, 1200, 1200, 1207, 1205, -74237, ANGLE_MODE, SMALL_ANGLE, IDLE, 1, 1
133, 52042825,   3,  -2,  -4,   0,   0,   0,   3,   3,   0,   9,   1,  -1, 1000, 1.081, 34.025, 225,  -1,   2,   1, -234,  63, 2114,   0,   0,   0,   0, 1200, 1200, 1208, 1201, -74237, ANGLE_MODE, SMALL_ANGLE, IDLE, 1, 1
134, 52043837,   2,  -1,  -5,   0,   0,   0,   1,   5,   0,   9,   1,  -1, 1000, 1.081, 34.025, 225,   0,   1,   2, -233,  62, 2114,   0,   0,   0,   0, 1200, 1200, 1209, 1200, -74237, ANGLE_MODE, SMALL_ANGLE, IDLE, 1, 1
135, 52044853,   2,  -1,  -5,   0,   0,   0,  -1,   6,   0,   9,   1,  -1, 1000, 1.081, 34.025, 225,   0,   1,   2, -233,  62, 2114,   0,   0,   0,   0, 1200, 1201, 1208, 1200, -74237, ANGLE_MODE, SMALL_ANGLE, IDLE, 1, 1
136, 52045864,   1,  -1,  -5,   0,   0,   0,  -4,   5,   0,   9,   1,  -1, 1000, 1.081, 34.025, 225,   0,   1,   2, -231,  61, 2114,   0,   0,   0,   0, 1200, 1203, 1205, 1200, -74237, ANGLE_MODE, SMALL_ANGLE, IDLE, 1, 1
137, 52046878,   0,  -1,  -4,   0,   0,   0,  -6,   4,   0,   9,   1,  -1, 1000, 1.081, 34.025, 225,   1,   1,   1, -231,  61, 2114,   0,   0,   0,   0, 1203, 1205, 1201, 1200, -74237, ANGLE_MODE, SMALL_ANGLE, IDLE, 1, 1
138, 52047885,   0,  -1,  -4,   0,   0,   0,  -7,   3,   0,   9,   1,  -1, 1000, 1.081, 34.025, 225,   1,   1,   1, -230,  60, 2114,   0,   0,   0,   0, 1203, 1206, 1200, 1200, -74237, ANGLE_MODE, SMALL_ANGLE, IDLE, 1, 1
139, 52048886,   0,  -1,  -4,   0,   0,   0,  -7,   2,   0,   9,   1,   0, 1000, 1.081, 34.025, 225,   1,   1,   2, -231,  59, 2115,   0,   0,   0,   0, 1203, 1208, 1200, 1200, -74237, ANGLE_MODE, SMALL_ANGLE, IDLE, 1, 1
140, 52049899,   0,  -1,  -4,   0,   0,   0,  -6,   0,   0,   9,   1,   0, 1000, 1.081, 34.025, 225,   1,   1,   2, -231,  59, 2115,   0,   0,   0,   0, 1201, 1208, 1200, 1200, -74237, ANGLE_MODE, SMALL_ANGLE, IDLE, 1, 1
141, 52050913,   0,  -1,  -5,   0,   0,   0,  -5,   0,   0,   9,   1,   0, 1000, 1.081, 34.025, 225,   2,   1,   2, -232,  59, 2115,   0,   0,   0,   0, 1200, 1210, 1200, 1200, -74237, ANGLE_MODE, SMALL_ANGLE, IDLE, 1, 1
142, 52051930,   0,  -1,  -6,   0,   0,   0,  -5,  -1,   0,   9,   1,   0, 1000, 1.081, 34.025, 225,   2,   1,   2, -233,  58, 2115,   0,   0,   0,   0, 1200, 1211, 1200, 1200, -74237, ANGLE_MODE, SMALL_ANGLE, IDLE, 1, 1
143, 52052948,   0,  -1,  -5,   0,   0,   0,  -4,  -1,   0,   9,   1,   0, 1000, 1.081, 34.025, 225,   2,   1,   2, -235,  57, 2116,   0,   0,   0,   0, 1200, 1210, 1200, 1200, -74237, ANGLE_MODE, SMALL_ANGLE, IDLE, 1, 1
144, 52053961,   0,  -1,  -5,   0,   0,   0,  -3,  -1,   0,   9,   1,   0, 1000, 1.081, 34.025, 225,   2,   1,   2, -237,  57, 2117,   0,   0,   0,   0, 1200, 1210, 1200, 1200, -74237, ANGLE_MODE, SMALL_ANGLE, IDLE, 1, 1
145, 52054968,   0,  -1,  -4,   0,   0,   0,  -2,  -1,   0,   9,   1,   0, 1000, 1.081, 34.025, 225,   2,   1,   2, -238,  57, 2117,   0,   0,   0,   0, 1200, 1208, 1200, 1200, -74237, ANGLE_MODE, SMALL_ANGLE, IDLE, 1, 1
146, 52055977,   0,  -1,  -2,   0,   0,   0,  -1,   0,   0,   9,   1,   0, 1000, 1.081, 34.025, 225,   2,   1,   1, -239,  58, 2117,   0,   0,   0,   0, 1200, 1206, 1200, 1200, -74237, ANGLE_MODE, SMALL_ANGLE, IDLE, 1, 1
147, 52056979,   0,  -1,  -1,   0,   0,   0,   0,   0,   0,   9,   1,   0, 1000, 1.081, 34.025, 225,   2,   1,   1, -240,  58, 2117,   0,   0,   0,   0, 1200, 1204, 1200, 1200, -74237, ANGLE_MODE, SMALL_ANGLE, IDLE, 1, 1
148, 52057992,  -1,  -1,   0,   0,   0,   0,   0,   0,   0,   9,   1,   0, 1000, 1.081, 34.025, 225,   2,   1,   0, -241,  58, 2117,   0,   0,   0,   0, 1200, 1202, 1200, 1200, -74237, ANGLE_MODE, SMALL_ANGLE, IDLE, 1, 1
149, 52059003,   0,  -1,   1,   0,   0,   0,   0,   1,   0,   9,   1,   0, 1000, 1.081, 34.025, 225,   2,   1,   0, -241,  58, 2117,   0,   0,   0,   0, 1201, 1200, 1200, 1200, -74237, ANGLE_MODE, SMALL_ANGLE, IDLE, 1, 1
150, 52060011,   0,  -1,   2,   0,   0,   0,   0,   1,   0,   9,   1,   0, 1000, 1.081, 34.025, 225,   1,   1,  -1, -241,  59, 2118,   0,   0,   0,   0, 1202, 1200, 1200, 1202, -74237, ANGLE_MODE, SMALL_ANGLE, IDLE, 1, 1
151, 52061019,   0,  -1,   3,   0,   0,   0,   1,   1,   0,   9,   1,   0, 1000, 1.081, 34.025, 225,   1,   1,  -1, -240,  60, 2118,   0,   0,   0,   0, 1200, 1200, 1200, 1205, -74237, ANGLE_MODE, SMALL_ANGLE, IDLE, 1, 1
152, 52062032,   1,  -1,   4,   0,   0,   0,   4,   0,   0,   9,   1,   0, 1000, 1.081, 34.025, 225,   0,   1,  -2, -239,  60, 2117,   0,   0,   0,   0, 1200, 1200, 1200, 1209, -74237, ANGLE_MODE, SMALL_ANGLE, IDLE, 1, 1
153, 52063036,   2,  -1,   6,   0,   0,   0,   8,   0,   0,   9,   1,   0, 1000, 1.081, 34.025, 225,   0,   1,  -2, -240,  61, 2117,   0,   0,   0,   0, 1200, 1200, 1202, 1214, -74237, ANGLE_MODE, SMALL_ANGLE, IDLE, 1, 1
154, 52064040,   3,  -1,   6,   0,   0,   0,  10,   0,   0,   9,   1,   0, 1000, 1.081, 34.025, 225,  -1,   1,  -2, -239,  62, 2116,   0,   0,   0,   0, 1200, 1200, 1203, 1216, -74237, ANGLE_MODE, SMALL_ANGLE, IDLE, 1, 1
155, 52065046,   3,  -2,   6,   0,   0,   0,  11,   0,   0,   9,   1,   0, 1000, 1.081, 34.025, 225,  -1,   1,  -2, -239,  63, 2115,   0,   0,   0,   0, 1200, 1200, 1204, 1217, -74237, ANGLE_MODE, SMALL_ANGLE, IDLE, 1, 1
156, 52066060,   3,  -2,   3,   0,   0,   0,  10,  -1,   0,   9,   1,   0, 1000, 1.081, 34.025, 225,  -1,   1,  -1, -239,  63, 2115,   0,   0,   0,   0, 1200, 1200, 1205, 1215, -74237, ANGLE_MODE, SMALL_ANGLE, IDLE, 1, 1
157, 52067066,   3,  -2,   2,   0,   0,   0,   7,  -1,   0,   9,   1,   0, 1000, 1.081, 34.025, 225,  -1,   2,  -1, -239,  63, 2115,   0,   0,   0,   0, 1200, 1200, 1203, 1212, -74237, ANGLE_MODE, SMALL_ANGLE, IDLE, 1, 1
158, 52068073,   2,  -2,   0,   0,   0,   0,   3,  -1,   0,   9,   1,   0, 1000, 1.081, 34.025, 225,   0,   2,   0, -240,  63, 2115,   0,   0,   0,   0, 1200, 1200, 1202, 1208, -74237, ANGLE_MODE, SMALL_ANGLE, IDLE, 1, 1
159, 52069084,   3,  -2,  -2,   0,   0,   0,   0,  -1,   0,   9,   1,   0, 1000, 1.081, 34.025, 225,  -1,   2,   1, -240,  63, 2114,   0,   0,   0,   0, 1200, 1202, 1201, 1204, -74237, ANGLE_MODE, SMALL_ANGLE, IDLE, 1, 1
160, 52070094,   2,  -2,  -3,   0,   0,   0,  -1,  -1,   0,   9,   1,   0, 1000, 1.081, 34.450, 225,  -1,   2,   1, -241,  63, 2114,   0,   0,   0,   0, 1200, 1204, 1201, 1201, -74237, ANGLE_MODE, SMALL_ANGLE, IDLE, 1, 1
161, 52071106,   2,  -2,  -4,   0,   0,   0,  -2,   0,   0,   9,   1,   0, 1000, 1.081, 34.450, 225,   0,   1,   2, -242,  62, 2115,   0,   0,   0,   0, 1200, 1205, 1201, 1200, -74237, ANGLE_MODE, SMALL_ANGLE, IDLE, 1, 1
162, 52072118,   2,  -2,  -4,   0,   0,   0,  -2,   0,   0,   9,   1,   0, 1000, 1.081, 34.450, 225,   0,   1,   2, -243,  62, 2114,   0,   0,   0,   0, 1200, 1205, 1201, 1200, -74237, ANGLE_MODE, SMALL_ANGLE, IDLE, 1, 1
163, 52073135,   1,  -1,  -5,   0,   0,   0,  -3,   1,   0,   9,   1,   0, 1000, 1.081, 34.450, 225,   0,   1,   2, -243,  62, 2113,   0,   0,   0,   0, 1200, 1205, 1202, 1200, -74237, ANGLE_MODE, SMALL_ANGLE, IDLE, 1, 1
164, 52074150,   1,  -1,  -5,   0,   0,   0,  -4,   1,   0,   9,   1,   0, 1000, 1.081, 34.450, 225,   1,   1,   2, -243,  63, 2113,   0,   0,   0,   0, 1200, 1206, 1202, 1200, -74237, ANGLE_MODE, SMALL_ANGLE, IDLE, 1, 1
165, 52075159,   0,   0,  -5,   0,   0,   0,  -5,   2,   0,   9,   1,   0, 1000, 1.081, 34.450, 225,   1,   1,   2, -244,  62, 2113,   0,   0,   0,   0, 1201, 1206, 1201, 1200, -74237, ANGLE_MODE, SMALL_ANGLE, IDLE, 1, 1
166, 52076166,   0,  -1,  -4,   0,   0,   0,  -6,   3,   0,   9,   1,   0, 1000, 1.081, 34.450, 225,   1,   1,   2, -243,  62, 2113,   0,   0,   0,   0, 1202, 1206, 1201, 1200, -74237, ANGLE_MODE, SMALL_ANGLE, IDLE, 1, 1
167, 52077178,   0,   0,  -3,   0,   0,   0,  -6,   3,   0,   9,   1,   0, 1000, 1.081, 34.450, 225,   1,   1,   1, -242,  62, 2113,   0,   0,   0,   0, 1204, 1205, 1200, 1200, -74237, ANGLE_MODE, SMALL_ANGLE, IDLE, 1, 1
168, 52078192,   0,   0,  -2,   0,   0,   0,  -5,   3,   0,   9,   1,   0, 1000, 1.081, 34.450, 225,   1,   1,   1, -241,  63, 2113,   0,   0,   0,   0, 1204, 1203, 1200, 1200, -74237, ANGLE_MODE, SMALL_ANGLE, IDLE, 1, 1
169, 52079196,   0,   0,   0,   0,   0,   0,  -3,   2,   0,   9,   1,   0, 1000, 1.081, 34.450, 225,   1,   0,   0, -241,  63, 2113,   0,   0,   0,   0, 1203, 1201, 1201, 1200, -74237, ANGLE_MODE, SMALL_ANGLE, IDLE, 1, 1
170, 52080201,   1,   0,   0,   0,   0,   0,   0,   2,   0,   9,   1,   0, 1000, 1.081, 34.450, 225,   0,   1,   0, -240,  64, 2113,   0,   0,   0,   0, 1200, 1200, 1203, 1200, -74237, ANGLE_MODE, SMALL_ANGLE, IDLE, 1, 1
171, 52081213,   1,   0,  -1,   0,   0,   0,   2,   1,   0,   9,   1,   0, 1000, 1.081, 34.450, 225,   0,   0,   0, -240,  64, 2112,   0,   0,   0,   0, 1200, 1200, 1205, 1201, -74237, ANGLE_MODE, SMALL_ANGLE, IDLE, 1, 1
172, 52082221,   2,   0,   0,   0,   0,   0,   4,   1,   0,   9,   1,   0, 1000, 1.081, 34.450, 225,   0,   0,   0, -239,  65, 2111,   0,   0,   0,   0, 1200, 1200, 1205, 1205, -74237, ANGLE_MODE, SMALL_ANGLE, IDLE, 1, 1
173, 52083231,   1,   0,   0,   0,   0,   0,   5,   1,   0,   9,   1,   0, 1000, 1.081, 34.450, 225,   0,   0,   0, -240,  65, 2111,   0,   0,   0,   0, 1200, 1200, 1206, 1205, -74237, ANGLE_MODE, SMALL_ANGLE, IDLE, 1, 1
174, 52084242,   0,   0,   1,   0,   0,   0,   4,   0,   0,   9,   1,   0, 1000, 1.081, 34.450, 225,   1,   1,  -1, -240,  65, 2112,   0,   0,   0,   0, 1200, 1200, 1203, 1205, -74237, ANGLE_MODE, SMALL_ANGLE, IDLE, 1, 1
175, 52085255,   0,  -1,   0,   0,   0,   0,   0,   0,   0,   9,   1,   0, 1000, 1.081, 34.450, 225,   2,   1,   0, -241,  66, 2111,   0,   0,   0,   0, 1200, 1202, 1200, 1202, -74237, ANGLE_MODE, SMALL_ANGLE, IDLE, 1, 1
176, 52086265,   0,  -1,  -3,   0,   0,   0,  -4,  -3,   0,   9,   1,   0, 1000, 1.081, 34.450, 225,   2,   1,   1, -241,  66, 2111,   0,   0,   0,   0, 1200, 1209, 1200, 1200, -74237, ANGLE_MODE, SMALL_ANGLE, IDLE, 1, 1
177, 52087279,   0,  -2,  -5,   0,   0,   0,  -7,  -5,   0,   9,   1,   0, 1000, 1.081, 34.450, 225,   2,   2,   2, -243,  66, 2112,   0,   0,   0,   0, 1200, 1215, 1200, 1200, -74237, ANGLE_MODE, SMALL_ANGLE, IDLE, 1, 1
178, 52088297,   0,  -2,  -6,   0,   0,   0,  -7,  -6,   0,   9,   1,   0, 1000, 1.081, 34.450, 225,   1,   2,   2, -244,  65, 2112,   0,   0,   0,   0, 1200, 1216, 1200, 1200, -74237, ANGLE_MODE, SMALL_ANGLE, IDLE, 1, 1
179, 52089301,   0,  -2,  -4,   0,   0,   0,  -4,  -5,   0,   9,   1,   1, 1000, 1.081, 34.450, 225,   1,   2,   2, -245,  65, 2112,   0,   0,   0,   0, 1200, 1212, 1200, 1200, -74237, ANGLE_MODE, SMALL_ANGLE, IDLE, 1, 1
180, 52090313,   1,  -2,  -1,   0,   0,   0,   0,  -4,   0,   9,   1,   1, 1000, 1.081, 34.450, 225,   0,   1,   1, -245,  64, 2113,   0,   0,   0,   0, 1200, 1204, 1200, 1204, -74237, ANGLE_MODE, SMALL_ANGLE, IDLE, 1, 1
181, 52091326,   1,  -1,   0,   0,   0,   0,   4,  -1,   0,   9,   1,   1, 1000, 1.081, 34.450, 225,   0,   1,   0, -245,  63, 2114,   0,   0,   0,   0, 1200, 1200, 1202, 1206, -74237, ANGLE_MODE, SMALL_ANGLE, IDLE, 1, 1
182, 52092329,   0,  -1,   0,   0,   0,   0,   5,   0,   0,   9,   1,   1, 1000, 1.081, 34.450, 225,   1,   1,   0, -245,  62, 2114,   0,   0,   0,   0, 1200, 1200, 1204, 1205, -74237, ANGLE_MODE, SMALL_ANGLE, IDLE, 1, 1
183, 52093342,   0,  -1,   0,   0,   0,   0,   4,   2,   0,   9,   1,   1, 1000, 1.081, 34.450, 225,   1,   1,   0, -244,  62, 2114,   0,   0,   0,   0, 1200, 1200, 1204, 1203, -74237, ANGLE_MODE, SMALL_ANGLE, IDLE, 1, 1
184, 52094350,   0,   0,   0,   0,   0,   0,   1,   3,   0,   9,   1,   1, 1000, 1.081, 34.450, 225,   1,   1,   0, -244,  62, 2115,   0,   0,   0,   0, 1201, 1200, 1204, 1201, -74237, ANGLE_MODE, SMALL_ANGLE, IDLE, 1, 1
185, 52095369,   1,   0,   0,   0,   0,   0,   0,   4,   0,   9,   1,   1, 1000, 1.081, 34.450, 225,   1,   1,   0, -243,  62, 2116,   0,   0,   0,   0, 1202, 1200, 1203, 1200, -74237, ANGLE_MODE, SMALL_ANGLE, IDLE, 1, 1
186, 52096383,   1,   0,   2,   0,   0,   0,   0,   4,   0,   9,   1,   1, 1000, 1.081, 34.450, 225,   0,   0,  -1, -242,  61, 2116,   0,   0,   0,   0, 1203, 1200, 1203, 1200, -74237, ANGLE_MODE, SMALL_ANGLE, IDLE, 1, 1
187, 52097401,   2,   0,   3,   0,   0,   0,   1,   4,   0,   9,   1,   1, 1000, 1.081, 34.450, 225,   0,   0,  -1, -242,  61, 2116,   0,   0,   0,   0, 1203, 1200, 1204, 1202, -74237, ANGLE_MODE, SMALL_ANGLE, IDLE, 1, 1
188, 52098411,   2,   0,   3,   0,   0,   0,   3,   4,   0,   9,   1,   1, 1000, 1.081, 34.450, 225,   0,   0,  -1, -242,  61, 2116,   0,   0,   0,   0, 1202, 1200, 1206, 1203, -74237, ANGLE_MODE, SMALL_ANGLE, IDLE, 1, 1
189, 52099426,   2,   0,   4,   0,   0,   0,   4,   4,   0,   9,   1,   1, 1000, 1.081, 34.450, 225,   0,   0,  -1, -242,  60, 2115,   0,   0,   0,   0, 1202, 1200, 1205, 1204, -74237, ANGLE_MODE, SMALL_ANGLE, IDLE, 1, 1
190, 52100431,   1,   0,   5,   0,   0,   0,   3,   3,   0,   9,   1,   1, 1000, 1.081, 34.450, 225,   0,   0,  -2, -242,  60, 2116,   0,   0,   0,   0, 1203, 1200, 1203, 1204, -74237, ANGLE_MODE, SMALL_ANGLE, IDLE, 1, 1
191, 52101445,   0,   0,   3,   0,   0,   0,   0,   2,   0,   9,   1,   1, 1000, 1.081, 34.450, 225,   1,   0,  -1, -243,  59, 2117,   0,   0,   0,   0, 1203, 1200, 1200, 1202, -74237, ANGLE_MODE, SMALL_ANGLE, IDLE, 1, 1
192, 52102456,   0,   0,   2,   0,   0,   0,  -3,   0,   0,   9,   1,   1, 1000, 1.081, 34.450, 225,   1,   1,  -1, -243,  59, 2117,   0,   0,   0,   0, 1203, 1201, 1200, 1200, -74237, ANGLE_MODE, SMALL_ANGLE, IDLE, 1, 1
193, 52103471,   0,   0,  -2,   0,   0,   0,  -6,  -2,   0,   9,   1,   1, 1000, 1.081, 34.450, 225,   1,   1,   1, -245,  59, 2116,   0,   0,   0,   0, 1200, 1208, 1200, 1200, -74237, ANGLE_MODE, SMALL_ANGLE, IDLE, 1, 1
194, 52104476,   0,   0,  -7,   0,   0,   0,  -7,  -3,   0,   9,   1,   1, 1000, 1.081, 34.450, 225,   1,   0,   3, -246,  59, 2117,   0,   0,   0,   0, 1200, 1213, 1200, 1200, -74237, ANGLE_MODE, SMALL_ANGLE, IDLE, 1, 1
195, 52105483,   0,   0,  -8,   0,   0,   0,  -5,  -3,   0,   9,   1,   1, 1000, 1.081, 34.450, 225,   1,   1,   3, -246,  58, 2118,   0,   0,   0,   0, 1200, 1213, 1200, 1200, -74237, ANGLE_MODE, SMALL_ANGLE, IDLE, 1, 1
196, 52106503,   1,   0, -10,   0,   0,   0,  -2,  -2,   0,   9,   1,   1, 1000, 1.081, 34.450, 225,   1,   1,   4, -246,  58, 2118,   0,   0,   0,   0, 1200, 1211, 1205, 1200, -74237, ANGLE_MODE, SMALL_ANGLE, IDLE, 1, 1
197, 52107517,   1,   0,  -9,   0,   0,   0,   1,  -1,   0,   9,   1,   1, 1000, 1.081, 34.450, 225,   0,   0,   4, -246,  57, 2118,   0,   0,   0,   0, 1200, 1206, 1207, 1200, -74237, ANGLE_MODE, SMALL_ANGLE, IDLE, 1, 1
198, 52108533,   0,   0,  -4,   0,   0,   0,   3,   0,   0,   9,   1,   1, 1000, 1.081, 34.450, 225,   1,   0,   2, -246,  57, 2119,   0,   0,   0,   0, 1200, 1200, 1206, 1200, -74237, ANGLE_MODE, SMALL_ANGLE, IDLE, 1, 1
199, 52109542,   0,   0,   0,   0,   0,   0,   3,   1,   0,   9,   1,   2, 1000, 1.081, 34.450, 225,   1,   0,   0, -246,  56, 2119,   0,   0,   0,   0, 1200, 1200, 1204, 1201, -74237, ANGLE_MODE, SMALL_ANGLE, IDLE, 1, 1
200, 52110558,   0,   0,   3,   0,   0,   0,   1,   1,   0,   9,   1,   2, 1000, 1.081, 34.325, 225,   1,   0,  -1, -246,  56, 2119,   0,   0,   0,   0, 1202, 1200, 1201, 1202, -74237, ANGLE_MODE, SMALL_ANGLE, IDLE, 1, 1
201, 52111575,   0,   0,   6,   0,   0,   0,   0,   2,   0,   9,   1,   2, 1000, 1.081, 34.325, 225,   1,   0,  -2, -245,  57, 2119,   0,   0,   0,   0, 1206, 1200, 1200, 1203, -74237, ANGLE_MODE, SMALL_ANGLE, IDLE, 1, 1
202, 52112581,   0,   0,   7,   0,   0,   0,  -1,   2,   0,   9,   1,   2, 1000, 1.081, 34.325, 225,   1,   0,  -3, -245,  57, 2119,   0,   0,   0,   0, 1209, 1200, 1200, 1202, -74237, ANGLE_MODE, SMALL_ANGLE, IDLE, 1, 1
203, 52113594,   0,   0,   7,   0,   0,   0,  -2,   2,   0,   9,   1,   2, 1000, 1.081, 34.325, 225,   1,   0,  -2, -245,  57, 2119,   0,   0,   0,   0, 1209, 1200, 1200, 1202, -74237, ANGLE_MODE, SMALL_ANGLE, IDLE, 1, 1
204, 52114612,   0,   0,   5,   0,   0,   0,  -2,   1,   0,   9,   1,   2, 1000, 1.081, 34.325, 225,   1,   0,  -2, -246,  57, 2119,   0,   0,   0,   0, 1207, 1200, 1200, 1201, -74237, ANGLE_MODE, SMALL_ANGLE, IDLE, 1, 1
205, 52115617,   0,   0,   4,   0,   0,   0,  -1,   0,   0,   9,   1,   2, 1000, 1.081, 34.325, 225,   1,   0,  -2, -246,  57, 2119,   0,   0,   0,   0, 1205, 1200, 1200, 1202, -74237, ANGLE_MODE, SMALL_ANGLE, IDLE, 1, 1
206, 52116623,   0,   0,   3,   0,   0,   0,  -1,   0,   0,   9,   1,   2, 1000, 1.081, 34.325, 225,   1,   0,  -1, -247,  57, 2118,   0,   0,   0,   0, 1202, 1200, 1200, 1203, -74237, ANGLE_MODE, SMALL_ANGLE, IDLE, 1, 1
207, 52117630,   0,   0,   0,   0,   0,   0,   0,  -2,   0,   9,   1,   2, 1000, 1.081, 34.325, 225,   1,   1,   0, -248,  57, 2119,   0,   0,   0,   0, 1200, 1202, 1200, 1203, -74237, ANGLE_MODE, SMALL_ANGLE, IDLE, 1, 1
208, 52118644,   0,   0,  -1,   0,   0,   0,   0,  -3,   0,   9,   1,   2, 1000, 1.081, 34.325, 225,   1,   1,   1, -248,  57, 2119,   0,   0,   0,   0, 1200, 1204, 1200, 1202, -74237, ANGLE_MODE, SMALL_ANGLE, IDLE, 1, 1
209, 52119652,   0,  -1,  -2,   0,   0,   0,   0,  -4,   0,   9,   1,   2, 1000, 1.081, 34.325, 225,   2,   1,   1, -249,  58, 2119,   0,   0,   0,   0, 1200, 1206, 1200, 1201, -74237, ANGLE_MODE, SMALL_ANGLE, IDLE, 1, 1
210, 52120661,   0,  -1,  -4,   0,   0,   0,  -1,  -4,   0,   9,   1,   2, 1000, 1.081, 34.325, 225,   2,   1,   2, -249,  58, 2119,   0,   0,   0,   0, 1200, 1208, 1200, 1200, -74237, ANGLE_MODE, SMALL_ANGLE, IDLE, 1, 1
211, 52121678,   0,  -1,  -4,   0,   0,   0,  -2,  -3,   0,   9,   1,   2, 1000, 1.081, 34.325, 225,   2,   1,   2, -249,  58, 2119,   0,   0,   0,   0, 1200, 1209, 1200, 1200, -74237, ANGLE_MODE, SMALL_ANGLE, IDLE, 1, 1
212, 52122696,   0,  -1,  -3,   0,   0,   0,  -3,  -2,   0,   9,   1,   2, 1000, 1.081, 34.325, 225,   2,   1,   1, -248,  58, 2119,   0,   0,   0,   0, 1200, 1207, 1200, 1200, -74238, ANGLE_MODE, SMALL_ANGLE, IDLE, 1, 1
213, 52123712,   0,  -1,   0,   0,   0,   0,  -2,  -1,   0,   9,   1,   2, 1000, 1.081, 34.325, 225,   1,   1,   1, -247,  58, 2119,   0,   0,   0,   0, 1200, 1204, 1200, 1200, -74238, ANGLE_MODE, SMALL_ANGLE, IDLE, 1, 1
214, 52124729,   0,   0,   1,   0,   0,   0,   0,   0,   0,   9,   1,   2, 1000, 1.081, 34.325, 225,   1,   1,   0, -246,  58, 2119,   0,   0,   0,   0, 1201, 1200, 1200, 1201, -74238, ANGLE_MODE, SMALL_ANGLE, IDLE, 1, 1
215, 52125745,   0,   0,   4,   0,   0,   0,   1,   1,   0,   9,   1,   2, 1000, 1.081, 34.325, 225,   1,   0,  -1, -244,  57, 2119,   0,   0,   0,   0, 1204, 1200, 1200, 1203, -74238, ANGLE_MODE, SMALL_ANGLE, IDLE, 1, 1
216, 52126758,   0,   0,   6,   0,   0,   0,   2,   3,   0,   9,   1,   2, 1000, 1.081, 34.325, 225,   1,   0,  -2, -243,  57, 2119,   0,   0,   0,   0, 1206, 1200, 1200, 1203, -74238, ANGLE_MODE, SMALL_ANGLE, IDLE, 1, 1
217, 52127769,   0,   1,   8,   0,   0,   0,   1,   5,   0,   9,   1,   2, 1000, 1.081, 34.325, 225,   1,  -1,  -3, -242,  57, 2119,   0,   0,   0,   0, 1209, 1200, 1200, 1203, -74238, ANGLE_MODE, SMALL_ANGLE, IDLE, 1, 1
218, 52128781,   0,   1,  11,   0,   0,   0,   0,   6,   0,   9,   1,   2, 1000, 1.081, 34.325, 225,   2,  -1,  -4, -241,  57, 2118,   0,   0,   0,   0, 1214, 1200, 1200, 1202, -74238, ANGLE_MODE, SMALL_ANGLE, IDLE, 1, 1
219, 52129793,   0,   1,  12,   0,   0,   0,   0,   7,   0,   9,   1,   2, 1000, 1.081, 34.325, 225,   1,  -1,  -5, -240,  57, 2117,   0,   0,   0,   0, 1216, 1200, 1200, 1202, -74238, ANGLE_MODE, SMALL_ANGLE, IDLE, 1, 1
220, 52130810,   0,   1,  11,   0,   0,   0,   0,   6,   0,   9,   1,   2, 1000, 1.081, 34.325, 225,   1,  -1,  -4, -240,  57, 2117,   0,   0,   0,   0, 1213, 1200, 1200, 1203, -74238, ANGLE_MODE, SMALL_ANGLE, IDLE, 1, 1
221, 52131825,   0,   0,   9,   0,   0,   0,   0,   3,   0,   9,   1,   2, 1000, 1.081, 34.325, 225,   1,   0,  -3, -241,  57, 2116,   0,   0,   0,   0, 1209, 1200, 1200, 1204, -74238, ANGLE_MODE, SMALL_ANGLE, IDLE, 1, 1
222, 52132835,   0,   0,   7,   0,   0,   0,   1,   0,   0,   9,   1,   2, 1000, 1.081, 34.325, 225,   2,   0,  -3, -242,  57, 2115,   0,   0,   0,   0, 1206, 1200, 1200, 1205, -74238, ANGLE_MODE, SMALL_ANGLE, IDLE, 1, 1
223, 52133840,   0,   0,   5,   0,   0,   0,   0,  -2,   0,   9,   1,   2, 1000, 1.081, 34.325, 225,   2,   0,  -2, -243,  57, 2116,   0,   0,   0,   0, 1202, 1200, 1200, 1206, -74238, ANGLE_MODE, SMALL_ANGLE, IDLE, 1, 1
224, 52134849,   0,   0,   0,   0,   0,   0,  -1,  -5,   0,   9,   1,   2, 1000, 1.081, 34.325, 225,   2,   1,   0, -244,  57, 2117,   0,   0,   0,   0, 1200, 1206, 1200, 1203, -74238, ANGLE_MODE, SMALL_ANGLE, IDLE, 1, 1
225, 52135857,  -1,  -1,  -2,   0,   0,   0,  -3,  -7,   0,   9,   1,   2, 1000, 1.081, 34.325, 225,   2,   1,   1, -244,  58, 2116,   0,   0,   0,   0, 1200, 1211, 1200, 1201, -74238, ANGLE_MODE, SMALL_ANGLE, IDLE, 1, 1
226, 52136873,   0,  -1,  -4,   0,   0,   0,  -4,  -7,   0,   9,   1,   2, 1000, 1.081, 34.325, 225,   2,   1,   2, -245,  58, 2116,   0,   0,   0,   0, 1200, 1213, 1200, 1200, -74238, ANGLE_MODE, SMALL_ANGLE, IDLE, 1, 1
227, 52137891,   0,  -1,  -5,   0,   0,   0,  -2,  -6,   0,   9,   1,   2, 1000, 1.081, 34.325, 225,   1,   1,   2, -245,  59, 2115,   0,   0,   0,   0, 1200, 1211, 1200, 1201, -74238, ANGLE_MODE, SMALL_ANGLE, IDLE, 1, 1
228, 52138903,   1,  -1,  -6,   0,   0,   0,   1,  -5,   0,   9,   1,   2, 1000, 1.081, 34.325, 225,   1,   1,   2, -245,  59, 2116,   0,   0,   0,   0, 1200, 1208, 1201, 1203, -74238, ANGLE_MODE, SMALL_ANGLE, IDLE, 1, 1
229, 52139923,   1,  -1,  -5,   0,   0,   0,   5,  -4,   0,   9,   1,   2, 1000, 1.081, 34.325, 225,   0,   1,   2, -244,  59, 2115,   0,   0,   0,   0, 1200, 1203, 1204, 1206, -74238, ANGLE_MODE, SMALL_ANGLE, IDLE, 1, 1
230, 52140936,   1,  -1,  -3,   0,   0,   0,   8,  -2,   0,   9,   1,   2, 1000, 1.081, 34.325, 225,   0,   1,   2, -243,  59, 2116,   0,   0,   0,   0, 1200, 1200, 1207, 1207, -74238, ANGLE_MODE, SMALL_ANGLE, IDLE, 1, 1
231, 52141950,   1,   0,  -1,   0,   0,   0,   8,   0,   0,   9,   1,   2, 1000, 1.081, 34.325, 225,   0,   0,   1, -242,  58, 2116,   0,   0,   0,   0, 1200, 1200, 1207, 1206, -74238, ANGLE_MODE, SMALL_ANGLE, IDLE, 1, 1
232, 52142964,   1,   0,   0,   0,   0,   0,   6,   2,   0,   9,   1,   2, 1000, 1.081, 34.325, 225,   0,   0,   0, -241,  58, 2116,   0,   0,   0,   0, 1200, 1200, 1208, 1204, -74238, ANGLE_MODE, SMALL_ANGLE, IDLE, 1, 1
233, 52143976,   1,   0,   2,   0,   0,   0,   4,   5,   0,   9,   1,   2, 1000, 1.081, 34.325, 225,   0,   0,  -1, -240,  58, 2115,   0,   0,   0,   0, 1202, 1200, 1207, 1201, -74238, ANGLE_MODE, SMALL_ANGLE, IDLE, 1, 1
234, 52144985,   1,   1,   3,   0,   0,   0,   1,   8,   0,   9,   1,   2, 1000, 1.081, 34.325, 225,   0,  -1,  -1, -240,  58, 2114,   0,   0,   0,   0, 1207, 1200, 1207, 1200, -74238, ANGLE_MODE, SMALL_ANGLE, IDLE, 1, 1
235, 52145999,   1,   1,   5,   0,   0,   0,   0,   8,   0,   9,   1,   2, 1000, 1.081, 34.325, 225,   0,  -1,  -2, -239,  58, 2114,   0,   0,   0,   0, 1209, 1200, 1205, 1200, -74238, ANGLE_MODE, SMALL_ANGLE, IDLE, 1, 1
236, 52147009,   1,   0,   3,   0,   0,   0,   0,   7,   0,   9,   1,   2, 1000, 1.081, 34.325, 225,   1,   0,  -1, -240,  58, 2113,   0,   0,   0,   0, 1207, 1200, 1204, 1200, -74238, ANGLE_MODE, SMALL_ANGLE, IDLE, 1, 1
237, 52148025,   0,   0,   0,   0,   0,   0,  -2,   4,   0,   9,   1,   2, 1000, 1.081, 34.325, 225,   1,   0,   0, -240,  58, 2113,   0,   0,   0,   0, 1206, 1200, 1201, 1200, -74238, ANGLE_MODE, SMALL_ANGLE, IDLE, 1, 1
238, 52149026,   0,   0,   0,   0,   0,   0,  -4,   0,   0,   9,   1,   2, 1000, 1.081, 34.325, 225,   2,   0,   0, -241,  57, 2114,   0,   0,   0,   0, 1204, 1203, 1200, 1200, -74238, ANGLE_MODE, SMALL_ANGLE, IDLE, 1, 1
239, 52150039,   0,   0,  -1,   0,   0,   0,  -7,  -2,   0,   8,   1,   2, 1000, 1.081, 34.325, 225,   2,   0,   1, -242,  58, 2114,   0,   0,   0,   0, 1203, 1209, 1200, 1200, -74238, ANGLE_MODE, SMALL_ANGLE, IDLE, 1, 1
240, 52151055,  -1,   0,   0,   0,   0,   0,  -8,  -5,   0,   8,   1,   2, 1000, 1.081, 34.225, 225,   2,   1,   1, -243,  58, 2115,   0,   0,   0,   0, 1203, 1212, 1200, 1200, -74238, ANGLE_MODE, SMALL_ANGLE, IDLE, 1, 1
241, 52152073,  -1,  -1,   0,   0,   0,   0,  -8,  -6,   0,   8,   1,   2, 1000, 1.081, 34.225, 225,   2,   1,   0, -244,  59, 2115,   0,   0,   0,   0, 1202, 1213, 1200, 1200, -74238, ANGLE_MODE, SMALL_ANGLE, IDLE, 1, 1
242, 52153077,   0,  -1,   3,   0,   0,   0,  -6,  -6,   0,   8,   1,   2, 1000, 1.081, 34.225, 225,   2,   1,  -1, -244,  59, 2114,   0,   0,   0,   0, 1202, 1208, 1200, 1203, -74238, ANGLE_MODE, SMALL_ANGLE, IDLE, 1, 1
243, 52154083,   0,  -1,   4,   0,   0,   0,  -2,  -5,   0,   8,   1,   2, 1000, 1.081, 34.225, 225,   1,   1,  -1, -244,  61, 2114,   0,   0,   0,   0, 1200, 1204, 1200, 1206, -74238, ANGLE_MODE, SMALL_ANGLE, IDLE, 1, 1
244, 52155101,   0,  -1,   3,   0,   0,   0,   2,  -3,   0,   8,   1,   2, 1000, 1.081, 34.225, 225,   1,   1,  -1, -244,  61, 2115,   0,   0,   0,   0, 1200, 1200, 1200, 1208, -74238, ANGLE_MODE, SMALL_ANGLE, IDLE, 1, 1
245, 52156104,   0,   0,   3,   0,   0,   0,   5,  -2,   0,   8,   1,   2, 1000, 1.081, 34.225, 225,   1,   1,  -1, -243,  61, 2115,   0,   0,   0,   0, 1200, 1200, 1200, 1209, -74238, ANGLE_MODE, SMALL_ANGLE, IDLE, 1, 1
246, 52157109,   0,   0,   2,   0,   0,   0,   6,   0,   0,   8,   1,   2, 1000, 1.081, 34.225, 225,   1,   0,  -1, -241,  61, 2116,   0,   0,   0,   0, 1200, 1200, 1204, 1207, -74238, ANGLE_MODE, SMALL_ANGLE, IDLE, 1, 1
247, 52158115,   0,   0,   0,   0,   0,   0,   6,   2,   0,   8,   1,   2, 1000, 1.081, 34.225, 225,   1,   0,   0, -240,  61, 2117,   0,   0,   0,   0, 1200, 1200, 1206, 1204, -74238, ANGLE_MODE, SMALL_ANGLE, IDLE, 1, 1
248, 52159126,   0,   0,   0,   0,   0,   0,   4,   4,   0,   8,   1,   2, 1000, 1.081, 34.225, 225,   1,   0,   0, -239,  61, 2117,   0,   0,   0,   0, 1200, 1200, 1207, 1201, -74238, ANGLE_MODE, SMALL_ANGLE, IDLE, 1, 1
249, 52160131,   0,   0,   0,   0,   0,   0,   3,   5,   0,   8,   1,   2, 1000, 1.081, 34.225, 225,   1,   0,   0, -239,  61, 2116,   0,   0,   0,   0, 1201, 1200, 1207, 1200, -74238, ANGLE_MODE, SMALL_ANGLE, IDLE, 1, 1
250, 52161137,   1,   0,   0,   0,   0,   0,   2,   5,   0,   8,   1,   2, 1000, 1.081, 34.225, 225,   0,   0,   0, -239,  61, 2115,   0,   0,   0,   0, 1201, 1200, 1207, 1200, -74238, ANGLE_MODE, SMALL_ANGLE, IDLE, 1, 1
251, 52162149,   0,   0,  -1,   0,   0,   0,   0,   4,   0,   8,   1,   2, 1000, 1.081, 34.225, 225,   1,   0,   1, -239,  61, 2115,   0,   0,   0,   0, 1201, 1200, 1205, 1200, -74238, ANGLE_MODE, SMALL_ANGLE, IDLE, 1, 1
252, 52163161,   0,   0,  -1,   0,   0,   0,   0,   2,   0,   8,   1,   2, 1000, 1.081, 34.225, 225,   1,   0,   1, -240,  61, 2115,   0,   0,   0,   0, 1201, 1200, 1202, 1200, -74238, ANGLE_MODE, SMALL_ANGLE, IDLE, 1, 1
253, 52164176,   0,   0,   0,   0,   0,   0,  -2,   0,   0,   8,   1,   2, 1000, 1.081, 34.225, 225,   1,   1,   0, -241,  61, 2115,   0,   0,   0,   0, 1201, 1202, 1200, 1200, -74238, ANGLE_MODE, SMALL_ANGLE, IDLE, 1, 1
254, 52165188,   0,  -1,   0,   0,   0,   0,  -3,  -2,   0,   8,   1,   2, 1000, 1.081, 34.225, 225,   1,   1,   0, -242,  60, 2115,   0,   0,   0,   0, 1200, 1205, 1200, 1200, -74238, ANGLE_MODE, SMALL_ANGLE, IDLE, 1, 1
255, 52166199,   0,  -1,   0,   0,   0,   0,  -3,  -5,   0,   8,   1,   2, 1000, 1.081, 34.225, 225,   1,   1,   0, -243,  61, 2115,   0,   0,   0,   0, 1200, 1207, 1200, 1202, -74238, ANGLE_MODE, SMALL_ANGLE, IDLE, 1, 1
256, 52167214,   0,  -2,  -1,   0,   0,   0,  -2,  -6,   0,   8,   1,   2, 1000, 1.081, 34.225, 225,   1,   2,   1, -243,  61, 2115,   0,   0,   0,   0, 1200, 1208, 1200, 1204, -74238, ANGLE_MODE, SMALL_ANGLE, IDLE, 1, 1
257, 52168222,   0,  -2,  -2,   0,   0,   0,   0,  -7,   0,   8,   1,   2, 1000, 1.081, 34.225, 225,   1,   2,   1, -243,  62, 2115,   0,   0,   0,   0, 1200, 1208, 1200, 1206, -74238, ANGLE_MODE, SMALL_ANGLE, IDLE, 1, 1
258, 52169236,   1,  -2,  -5,   0,   0,   0,   3,  -7,   0,   8,   1,   2, 1000, 1.081, 34.225, 225,   0,   2,   2, -243,  62, 2114,   0,   0,   0,   0, 1200, 1207, 1200, 1207, -74238, ANGLE_MODE, SMALL_ANGLE, IDLE, 1, 1
259, 52170248,   2,  -1,  -4,   0,   0,   0,   4,  -5,   0,   7,   1,   1, 1000, 1.081, 34.225, 225,   0,   1,   2, -242,  63, 2115,   0,   0,   0,   0, 1200, 1204, 1203, 1207, -74238, ANGLE_MODE, SMALL_ANGLE, IDLE, 1, 1
260, 52171265,   1,  -2,  -2,   0,   0,   0,   5,  -3,   0,   7,   1,   1, 1000, 1.081, 34.225, 225,   0,   2,   1, -242,  63, 2116,   0,   0,   0,   0, 1200, 1201, 1203, 1207, -74238, ANGLE_MODE, SMALL_ANGLE, IDLE, 1, 1
261, 52172279,   0,  -1,   2,   0,   0,   0,   3,   0,   0,   7,   1,   1, 1000, 1.081, 34.225, 225,   0,   1,  -1, -241,  63, 2116,   0,   0,   0,   0, 1200, 1200, 1200, 1207, -74238, ANGLE_MODE, SMALL_ANGLE, IDLE, 1, 1
262, 52173298,   0,   0,   7,   0,   0,   0,   1,   1,   0,   7,   1,   1, 1000, 1.081, 34.225, 225,   1,   1,  -3, -239,  64, 2115,   0,   0,   0,   0, 1204, 1200, 1200, 1206, -74238, ANGLE_MODE, SMALL_ANGLE, IDLE, 1, 1
263, 52174313,   0,   0,   9,   0,   0,   0,  -1,   3,   0,   7,   1,   1, 1000, 1.081, 34.225, 225,   1,   0,  -3, -237,  64, 2115,   0,   0,   0,   0, 1210, 1200, 1200, 1204, -74238, ANGLE_MODE, SMALL_ANGLE, IDLE, 1, 1
264, 52175327,   0,   0,  10,   0,   0,   0,  -3,   5,   0,   7,   1,   1, 1000, 1.081, 34.225, 225,   1,   0,  -4, -237,  64, 2115,   0,   0,   0,   0, 1213, 1200, 1200, 1202, -74238, ANGLE_MODE, SMALL_ANGLE, IDLE, 1, 1
265, 52176338,   0,   0,   8,   0,   0,   0,  -3,   6,   0,   7,   1,   1, 1000, 1.081, 34.225, 225,   1,   0,  -3, -236,  65, 2114,   0,   0,   0,   0, 1212, 1200, 1200, 1200, -74238, ANGLE_MODE, SMALL_ANGLE, IDLE, 1, 1
266, 52177352,   1,   0,   5,   0,   0,   0,  -2,   6,   0,   7,   1,   1, 1000, 1.081, 34.225, 225,   0,   0,  -2, -236,  64, 2113,   0,   0,   0,   0, 1209, 1200, 1200, 1200, -74238, ANGLE_MODE, SMALL_ANGLE, IDLE, 1, 1
267, 52178366,   1,   0,   1,   0,   0,   0,   0,   4,   0,   7,   1,   1, 1000, 1.081, 34.225, 225,   0,   0,  -1, -237,  63, 2114,   0,   0,   0,   0, 1203, 1200, 1203, 1200, -74238, ANGLE_MODE, SMALL_ANGLE, IDLE, 1, 1
268, 52179377,   1,  -1,   1,   0,   0,   0,   1,   1,   0,   7,   1,   1, 1000, 1.081, 34.225, 225,   0,   1,   0, -238,  63, 2115,   0,   0,   0,   0, 1200, 1200, 1201, 1203, -74238, ANGLE_MODE, SMALL_ANGLE, IDLE, 1, 1
