loopIteration, time (us), axisP[0], axisP[1], axisP[2], axisI[0], axisI[1], axisI[2], axisD[0], axisD[1], axisD[2], rcCommand[0], rcCommand[1], rcCommand[2], rcCommand[3], vbatLatest (V), amperageLatest (A), rssi, gyroADC[0], gyroADC[1], gyroADC[2], accSmooth[0], accSmooth[1], accSmooth[2], debug[0], debug[1], debug[2], debug[3], motor[0], motor[1], motor[2], motor[3], energyCumulative (mAh), flightModeFlags (flags), stateFlags (flags), failsafePhase (flags), rxSignalReceived, rxFlightChannelsValid
  0, 28247882,   2,   0,   8,   0,   0,   0,  -1,   0,   0,  14,   5,  -1, 1000, 1.063, 35.150, 214,   0,   1,  -3, -90, 441, 2072,   0,   0,   0,   0, 1205, 1200, 1200, 1207, -36257, ANGLE_MODE, SMALL_ANGLE, IDLE, 1, 1
  1, 28248893,   2,   0,   9,   0,   0,   0,   0,   0,   0,  14,   5,  -1, 1000, 1.063, 35.150, 214,   1,   1,  -3, -90, 441, 2072,   0,   0,   0,   0, 1206, 1200, 1200, 1207, -36496, ANGLE_MODE, SMALL_ANGLE, IDLE, 1, 1
  2, 28249908,   2,   0,   9,   0,   0,   0,  -1,   0,   0,  14,   5,  -1, 1000, 1.063, 35.150, 214,   1,   1,  -4, -90, 441, 2071,   0,   0,   0,   0, 1206, 1200, 1200, 1207, -36496, ANGLE_MODE, SMALL_ANGLE, IDLE, 1, 1
  3, 28250916,   2,   0,   8,   0,   0,   0,  -1,   0,   0,  14,   5,  -1, 1000, 1.063, 35.150, 214,   0,   1,  -3, -89, 441, 2071,   0,   0,   0,   0, 1205, 1200, 1200, 1207, -36496, ANGLE_MODE, SMALL_ANGLE, IDLE, 1, 1
  4, 28251932,   2,   0,   8,   0,   0,   0,  -1,   0,   0,  14,   5,  -1, 1000, 1.063, 35.150, 214,   1,   1,  -3, -89, 441, 2071,   0,   0,   0,   0, 1205, 1200, 1200, 1207, -36496, ANGLE_MODE, SMALL_ANGLE, IDLE, 1, 1
  5, 28252945,   1,   0,   8,   0,   0,   0,  -1,   0,   0,  14,   5,  -1, 1000, 1.063, 35.150, 214,   1,   1,  -3, -89, 441, 2071,   0,   0,   0,   0, 1206, 1200, 1200, 1206, -36496, ANGLE_MODE, SMALL_ANGLE, IDLE, 1, 1
  6, 28253962,   1,   0,   7,   0,   0,   0,  -1,   0,   0,  14,   5,  -1, 1000, 1.063, 35.150, 214,   1,   1,  -3, -89, 441, 2071,   0,   0,   0,   0, 1205, 1200, 1200, 1206, -36496, ANGLE_MODE, SMALL_ANGLE, IDLE, 1, 1
  7, 28254971,   1,   0,   6,   0,   0,   0,  -1,   1,   0,  14,   5,  -1, 1000, 1.063, 35.150, 214,   1,   1,  -3, -88, 441, 2071,   0,   0,   0,   0, 1206, 1200, 1200, 1205, -36496, ANGLE_MODE, SMALL_ANGLE, IDLE, 1, 1
  8, 28255979,   1,   0,   7,   0,   0,   0,  -2,   1,   0,  14,   5,  -1, 1000, 1.063, 35.150, 214,   1,   0,  -3, -87, 441, 2070,   0,   0,   0,   0, 1207, 1200, 1200, 1203, -36496, ANGLE_MODE, SMALL_ANGLE, IDLE, 1, 1
  9, 28256997,   1,   0,   7,   0,   0,   0,  -2,   2,   0,  14,   5,  -1, 1000, 1.063, 35.150, 214,   1,   1,  -3, -87, 442, 2070,   0,   0,   0,   0, 1208, 1200, 1200, 1203, -36496, ANGLE_MODE, SMALL_ANGLE, IDLE, 1, 1
 10, 28258015,   1,   0,   7,   0,   0,   0,  -2,   1,   0,  14,   5,  -1, 1000, 1.063, 35.150, 214,   1,   1,  -3, -87, 442, 2069,   0,   0,   0,   0, 1208, 1200, 1200, 1204, -36496, ANGLE_MODE, SMALL_ANGLE, IDLE, 1, 1
 11, 28259029,   1,   0,   9,   0,   0,   0,  -1,   1,   0,  14,   5,  -1, 1000, 1.063, 35.150, 214,   1,   1,  -4, -86, 442, 2069,   0,   0,   0,   0, 1208, 1200, 1200, 1207, -36496, ANGLE_MODE, SMALL_ANGLE, IDLE, 1, 1
 12, 28260035,   2,   0,  11,   0,   0,   0,   0,   0,   0,  14,   5,  -1, 1000, 1.063, 35.150, 214,   1,   1,  -4, -85, 442, 2069,   0,   0,   0,   0, 1207, 1200, 1200, 1210, -36496, ANGLE_MODE, SMALL_ANGLE, IDLE, 1, 1
 13, 28261043,   2,   0,  13,   0,   0,   0,   1,   0,   0,  14,   5,  -1, 1000, 1.063, 35.150, 214,   0,   1,  -5, -85, 443, 2069,   0,   0,   0,   0, 1206, 1200, 1200, 1213, -36496, ANGLE_MODE, SMALL_ANGLE, IDLE, 1, 1
 14, 28262050,   2,   0,  14,   0,   0,   0,   3,  -1,   0,  14,   5,  -1, 1000, 1.063, 35.150, 214,   0,   1,  -6, -85, 443, 2069,   0,   0,   0,   0, 1206, 1200, 1200, 1216, -36496, ANGLE_MODE, SMALL_ANGLE, IDLE, 1, 1
 15, 28263066,   2,   0,  16,   0,   0,   0,   3,  -1,   0,  14,   5,  -1, 1000, 1.063, 35.150, 214,   0,   1,  -6, -84, 444, 2069,   0,   0,   0,   0, 1206, 1200, 1200, 1219, -36496, ANGLE_MODE, SMALL_ANGLE, IDLE, 1, 1
 16, 28264080,   2,   0,  18,   0,   0,   0,   3,  -1,   0,  14,   5,  -1, 1000, 1.063, 35.150, 214,   0,   1,  -7, -83, 444, 2069,   0,   0,   0,   0, 1207, 1200, 1200, 1219, -36496, ANGLE_MODE, SMALL_ANGLE, IDLE, 1, 1
 17, 28265086,   2,   0,  19,   0,   0,   0,   2,  -1,   0,  14,   5,  -1, 1000, 1.063, 35.150, 214,   0,   1,  -7, -83, 444, 2068,   0,   0,   0,   0, 1209, 1200, 1200, 1219, -36496, ANGLE_MODE, SMALL_ANGLE, IDLE, 1, 1
 18, 28266095,   2,   0,  20,   0,   0,   0,   1,  -1,   0,  14,   5,  -1, 1000, 1.063, 35.150, 214,   0,   1,  -8, -82, 445, 2068,   0,   0,   0,   0, 1211, 1200, 1200, 1219, -36496, ANGLE_MODE, SMALL_ANGLE, IDLE, 1, 1
 19, 28267110,   2,   0,  20,   0,   0,   0,   0,  -1,   0,  15,   6,  -1, 1000, 1.063, 35.150, 214,   0,   1,  -8, -82, 445, 2069,   0,   0,   0,   0, 1212, 1200, 1200, 1219, -36496, ANGLE_MODE, SMALL_ANGLE, IDLE, 1, 1
 20, 28268118,   2,   0,  20,   0,   0,   0,   0,   0,   0,  15,   6,  -1, 1000, 1.081, 35.250, 214,   0,   1,  -8, -81, 445, 2069,   0,   0,   0,   0, 1212, 1200, 1200, 1217, -36496, ANGLE_MODE, SMALL_ANGLE, IDLE, 1, 1
 21, 28269129,   3,   0,  19,   0,   0,   0,   0,   0,   0,  15,   6,  -1, 1000, 1.081, 35.250, 214,   0,   1,  -7, -81, 446, 2068,   0,   0,   0,   0, 1211, 1200, 1200, 1216, -36496, ANGLE_MODE, SMALL_ANGLE, IDLE, 1, 1
 22, 28270137,   3,   0,  18,   0,   0,   0,   0,   0,   0,  15,   6,  -1, 1000, 1.081, 35.250, 214,   0,   1,  -7, -81, 446, 2068,   0,   0,   0,   0, 1210, 1200, 1200, 1216, -36496, ANGLE_MODE, SMALL_ANGLE, IDLE, 1, 1
 23, 28271149,   3,   0,  18,   0,   0,   0,   0,   0,   0,  15,   6,  -1, 1000, 1.081, 35.250, 214,   0,   1,  -7, -81, 446, 2068,   0,   0,   0,   0, 1210, 1200, 1200, 1216, -36496, ANGLE_MODE, SMALL_ANGLE, IDLE, 1, 1
 24, 28272155,   3,   0,  17,   0,   0,   0,   0,   0,   0,  15,   6,  -1, 1000, 1.081, 35.250, 214,   0,   1,  -7, -81, 446, 2068,   0,   0,   0,   0, 1210, 1200, 1200, 1215, -36496, ANGLE_MODE, SMALL_ANGLE, IDLE, 1, 1
 25, 28273170,   3,   0,  16,   0,   0,   0,   1,   0,   0,  15,   6,  -1, 1000, 1.081, 35.250, 214,   0,   1,  -6, -81, 447, 2068,   0,   0,   0,   0, 1210, 1200, 1200, 1215, -36496, ANGLE_MODE, SMALL_ANGLE, IDLE, 1, 1
 26, 28274184,   3,   0,  16,   0,   0,   0,   1,   1,   0,  15,   6,  -1, 1000, 1.081, 35.250, 214,   0,   1,  -6, -81, 447, 2068,   0,   0,   0,   0, 1210, 1200, 1200, 1214, -36496, ANGLE_MODE, SMALL_ANGLE, IDLE, 1, 1
 27, 28275198,   3,   0,  14,   0,   0,   0,   0,   1,   0,  15,   6,  -1, 1000, 1.081, 35.250, 214,   0,   1,  -5, -82, 447, 2068,   0,   0,   0,   0, 1209, 1200, 1200, 1212, -36496, ANGLE_MODE, SMALL_ANGLE, IDLE, 1, 1
 28, 28276204,   3,   0,  13,   0,   0,   0,   1,   2,   0,  15,   6,  -1, 1000, 1.081, 35.250, 214,   0,   1,  -5, -82, 447, 2067,   0,   0,   0,   0, 1208, 1200, 1200, 1212, -36496, ANGLE_MODE, SMALL_ANGLE, IDLE, 1, 1
 29, 28277218,   3,   0,  11,   0,   0,   0,   1,   1,   0,  15,   6,  -1, 1000, 1.081, 35.250, 214,   0,   0,  -4, -83, 447, 2067,   0,   0,   0,   0, 1207, 1200, 1200, 1211, -36496, ANGLE_MODE, SMALL_ANGLE, IDLE, 1, 1
 30, 28278232,   3,   0,  10,   0,   0,   0,   1,   1,   0,  15,   6,  -1, 1000, 1.081, 35.250, 214,   0,   0,  -4, -84, 447, 2067,   0,   0,   0,   0, 1205, 1200, 1200, 1210, -36496, ANGLE_MODE, SMALL_ANGLE, IDLE, 1, 1
 31, 28279242,   4,   0,   9,   0,   0,   0,   2,   1,   0,  15,   6,  -1, 1000, 1.081, 35.250, 214,  -1,   0,  -4, -84, 447, 2067,   0,   0,   0,   0, 1204, 1200, 1200, 1211, -36496, ANGLE_MODE, SMALL_ANGLE, IDLE, 1, 1
 32, 28280254,   4,   0,   9,   0,   0,   0,   2,   1,   0,  15,   6,  -1, 1000, 1.081, 35.250, 214,  -1,   0,  -4, -85, 447, 2067,   0,   0,   0,   0, 1204, 1200, 1200, 1211, -36496, ANGLE_MODE, SMALL_ANGLE, IDLE, 1, 1
 33, 28281269,   4,   0,   8,   0,   0,   0,   2,   1,   0,  15,   6,  -1, 1000, 1.081, 35.250, 214,   0,   0,  -3, -86, 447, 2066,   0,   0,   0,   0, 1203, 1200, 1200, 1209, -36496, ANGLE_MODE, SMALL_ANGLE, IDLE, 1, 1
 34, 28282285,   3,   0,   6,   0,   0,   0,   1,   0,   0,  15,   6,  -1, 1000, 1.081, 35.250, 214,   0,   0,  -2, -88, 447, 2066,   0,   0,   0,   0, 1202, 1200, 1200, 1208, -36496, ANGLE_MODE, SMALL_ANGLE, IDLE, 1, 1
 35, 28283295,   3,   0,   4,   0,   0,   0,   0,   0,   0,  15,   6,  -1, 1000, 1.081, 35.250, 214,   0,   1,  -2, -89, 447, 2066,   0,   0,   0,   0, 1201, 1200, 1200, 1206, -36496, ANGLE_MODE, SMALL_ANGLE, IDLE, 1, 1
 36, 28284310,   2,   0,   2,   0,   0,   0,  -1,   0,   0,  15,   6,  -1, 1000, 1.081, 35.250, 214,   0,   1,  -1, -90, 446, 2065,   0,   0,   0,   0, 1201, 1200, 1200, 1204, -36496, ANGLE_MODE, SMALL_ANGLE, IDLE, 1, 1
 37, 28285319,   2,   0,   1,   0,   0,   0,  -3,  -1,   0,  15,   6,  -1, 1000, 1.081, 35.250, 214,   1,   1,   0, -91, 446, 2065,   0,   0,   0,   0, 1201, 1201, 1200, 1202, -36496, ANGLE_MODE, SMALL_ANGLE, IDLE, 1, 1
 38, 28286329,   1,   0,   0,   0,   0,   0,  -5,  -2,   0,  15,   6,  -1, 1000, 1.081, 35.250, 214,   1,   1,   0, -92, 445, 2066,   0,   0,   0,   0, 1201, 1204, 1200, 1200, -36496, ANGLE_MODE, SMALL_ANGLE, IDLE, 1, 1
 39, 28287363,   2,   0,  -1,   0,   0,   0,  -6,  -3,   0,  16,   7,  -2, 1000, 1.081, 35.250, 214,   1,   1,   0, -94, 445, 2066,   0,   0,   0,   0, 1200, 1207, 1200, 1200, -36496, ANGLE_MODE, SMALL_ANGLE, IDLE, 1, 1
 40, 28288373,   2,   0,  -3,   0,   0,   0,  -5,  -2,   0,  16,   7,  -2, 1000, 1.081, 35.250, 214,   1,   1,   1, -95, 444, 2066,   0,   0,   0,   0, 1200, 1207, 1200, 1200, -36496, ANGLE_MODE, SMALL_ANGLE, IDLE, 1, 1
 41, 28289384,   2,   0,  -4,   0,   0,   0,  -3,  -2,   0,  16,   7,  -2, 1000, 1.081, 35.250, 214,   1,   1,   2, -96, 443, 2067,   0,   0,   0,   0, 1200, 1206, 1201, 1200, -36496, ANGLE_MODE, SMALL_ANGLE, IDLE, 1, 1
 42, 28290391,   2,   0,  -6,   0,   0,   0,   0,  -2,   0,  16,   7,  -2, 1000, 1.081, 35.250, 214,   1,   1,   2, -97, 443, 2067,   0,   0,   0,   0, 1200, 1205, 1204, 1200, -36496, ANGLE_MODE, SMALL_ANGLE, IDLE, 1, 1
 43, 28291401,   2,   0,  -7,   0,   0,   0,   0,  -2,   0,  16,   7,  -2, 1000, 1.081, 35.250, 214,   1,   2,   3, -98, 442, 2068,   0,   0,   0,   0, 1200, 1205, 1206, 1200, -36496, ANGLE_MODE, SMALL_ANGLE, IDLE, 1, 1
 44, 28292417,   2,  -1,  -8,   0,   0,   0,   1,  -2,   0,  16,   7,  -2, 1000, 1.081, 35.250, 214,   0,   2,   3, -99, 442, 2069,   0,   0,   0,   0, 1200, 1205, 1207, 1200, -36496, ANGLE_MODE, SMALL_ANGLE, IDLE, 1, 1
 45, 28293422,   2,  -1,  -9,   0,   0,   0,   1,  -2,   0,  16,   7,  -2, 1000, 1.081, 35.250, 214,   1,   2,   3, -100, 441, 2070,   0,   0,   0,   0, 1200, 1207, 1207, 1200, -36496, ANGLE_MODE, SMALL_ANGLE, IDLE, 1, 1
 46, 28294437,   2,  -1, -10,   0,   0,   0,   0,  -2,   0,  16,   7,  -2, 1000, 1.081, 35.250, 214,   1,   2,   4, -100, 441, 2071,   0,   0,   0,   0, 1200, 1208, 1207, 1200, -36496, ANGLE_MODE, SMALL_ANGLE, IDLE, 1, 1
 47, 28295450,   2,  -1, -10,   0,   0,   0,   0,  -2,   0,  16,   7,  -2, 1000, 1.081, 35.250, 214,   1,   2,   4, -101, 441, 2071,   0,   0,   0,   0, 1200, 1208, 1206, 1200, -36496, ANGLE_MODE, SMALL_ANGLE, IDLE, 1, 1
 48, 28296466,   2,  -1, -10,   0,   0,   0,   0,  -1,   0,  16,   7,  -2, 1000, 1.081, 35.250, 214,   1,   2,   4, -102, 441, 2071,   0,   0,   0,   0, 1200, 1208, 1207, 1200, -36496, ANGLE_MODE, SMALL_ANGLE, IDLE, 1, 1
 49, 28297482,   3,   0, -11,   0,   0,   0,   0,   0,   0,  16,   7,  -2, 1000, 1.081, 35.250, 214,   0,   2,   4, -103, 441, 2072,   0,   0,   0,   0, 1200, 1207, 1210, 1200, -36496, ANGLE_MODE, SMALL_ANGLE, IDLE, 1, 1
 50, 28298499,   4,   0, -12,   0,   0,   0,   2,   0,   0,  17,   8,  -2, 1000, 1.081, 35.250, 214,   0,   1,   4, -104, 442, 2072,   0,   0,   0,   0, 1200, 1204, 1214, 1200, -36496, ANGLE_MODE, SMALL_ANGLE, IDLE, 1, 1
 51, 28299514,   4,   0, -13,   0,   0,   0,   5,   2,   0,  17,   8,  -2, 1000, 1.081, 35.250, 214,  -1,   1,   5, -105, 442, 2073,   0,   0,   0,   0, 1200, 1201, 1219, 1200, -36496, ANGLE_MODE, SMALL_ANGLE, IDLE, 1, 1
 52, 28300534,   4,   0, -15,   0,   0,   0,   7,   3,   0,  17,   8,  -2, 1000, 1.081, 35.250, 214,  -1,   1,   5, -107, 442, 2073,   0,   0,   0,   0, 1200, 1200, 1222, 1200, -36496, ANGLE_MODE, SMALL_ANGLE, IDLE, 1, 1
 53, 28301535,   4,   0, -17,   0,   0,   0,   7,   4,   0,  17,   8,  -2, 1000, 1.081, 35.250, 214,  -1,   1,   6, -108, 442, 2072,   0,   0,   0,   0, 1200, 1200, 1225, 1200, -36496, ANGLE_MODE, SMALL_ANGLE, IDLE, 1, 1
 54, 28302544,   4,   1, -18,   0,   0,   0,   5,   5,   0,  17,   8,  -2, 1000, 1.081, 35.250, 214,   0,   0,   7, -110, 442, 2072,   0,   0,   0,   0, 1200, 1202, 1225, 1200, -36496, ANGLE_MODE, SMALL_ANGLE, IDLE, 1, 1
 55, 28303561,   4,   1, -19,   0,   0,   0,   2,   5,   0,  17,   8,  -2, 1000, 1.081, 35.250, 214,   0,   0,   7, -112, 443, 2072,   0,   0,   0,   0, 1200, 1204, 1224, 1200, -36496, ANGLE_MODE, SMALL_ANGLE, IDLE, 1, 1
 56, 28304576,   4,   1, -21,   0,   0,   0,   0,   5,   0,  17,   8,  -2, 1000, 1.081, 35.250, 214,   0,   0,   8, -114, 443, 2071,   0,   0,   0,   0, 1200, 1207, 1224, 1200, -36496, ANGLE_MODE, SMALL_ANGLE, IDLE, 1, 1
 57, 28305582,   4,   2, -21,   0,   0,   0,  -1,   5,   0,  17,   8,  -2, 1000, 1.081, 35.250, 214,   0,   0,   8, -116, 443, 2071,   0,   0,   0,   0, 1200, 1208, 1223, 1200, -36496, ANGLE_MODE, SMALL_ANGLE, IDLE, 1, 1
 58, 28306588,   4,   2, -21,   0,   0,  -1,  -1,   4,   0,  17,   8,  -2, 1000, 1.081, 35.250, 214,   0,   0,   8, -117, 443, 2071,   0,   0,   0,   0, 1200, 1209, 1223, 1200, -36496, ANGLE_MODE, SMALL_ANGLE, IDLE, 1, 1
 59, 28307607,   3,   2, -21,   0,   0,   0,  -1,   3,   0,  16,   9,  -3, 1000, 1.081, 35.250, 214,   0,   0,   8, -119, 442, 2071,   0,   0,   0,   0, 1200, 1210, 1221, 1200, -36496, ANGLE_MODE, SMALL_ANGLE, IDLE, 1, 1
 60, 28308624,   3,   2, -22,   0,   0,   0,  -1,   2,   0,  16,   9,  -3, 1000, 1.072, 33.975, 214,   0,   0,   8, -121, 442, 2070,   0,   0,   0,   0, 1200, 1211, 1220, 1200, -36496, ANGLE_MODE, SMALL_ANGLE, IDLE, 1, 1
 61, 28309627,   2,   2, -22,   0,   0,   0,  -2,   1,   0,  16,   9,  -3, 1000, 1.072, 33.975, 214,   1,   0,   8, -122, 442, 2070,   0,   0,   0,   0, 1200, 1213, 1219, 1200, -36496, ANGLE_MODE, SMALL_ANGLE, IDLE, 1, 1
 62, 28310636,   2,   2, -24,   0,   0,   0,  -4,   0,   0,  16,   9,  -3, 1000, 1.072, 33.975, 214,   1,   0,   9, -123, 441, 2070,   0,   0,   0,   0, 1200, 1217, 1218, 1200, -36496, ANGLE_MODE, SMALL_ANGLE, IDLE, 1, 1
 63, 28311658,   2,   2, -26,   0,   0,   0,  -5,   0,   0,  16,   9,  -3, 1000, 1.072, 33.975, 214,   1,   0,   9, -124, 441, 2069,   0,   0,   0,   0, 1200, 1220, 1218, 1200, -36496, ANGLE_MODE, SMALL_ANGLE, IDLE, 1, 1
 64, 28312665,   2,   2, -28,   0,   0,   0,  -5,   0,   0,  16,   9,  -3, 1000, 1.072, 33.975, 214,   1,   0,  10, -124, 440, 2069,   0,   0,   0,   0, 1200, 1221, 1220, 1200, -36496, ANGLE_MODE, SMALL_ANGLE, IDLE, 1, 1
 65, 28313675,   2,   2, -32,   0,   0,   0,  -3,   0,   0,  16,   9,  -3, 1000, 1.072, 33.975, 214,   0,   0,  12, -124, 440, 2068,   0,   0,   0,   0, 1200, 1223, 1224, 1200, -36496, ANGLE_MODE, SMALL_ANGLE, IDLE, 1, 1
 66, 28314692,   3,   1, -33,   0,   0,   0,   0,  -1,   0,  16,   9,  -3, 1000, 1.072, 33.975, 214,   0,   0,  12, -124, 440, 2068,   0,   0,   0,   0, 1200, 1222, 1227, 1200, -36496, ANGLE_MODE, SMALL_ANGLE, IDLE, 1, 1
 67, 28315705,   3,   1, -34,   0,   0,  -1,   2,  -1,   0,  16,   9,  -3, 1000, 1.072, 33.975, 214,   0,   0,  12, -124, 439, 2068,   0,   0,   0,   0, 1200, 1220, 1229, 1200, -36496, ANGLE_MODE, SMALL_ANGLE, IDLE, 1, 1
 68, 28316709,   3,   1, -34,   0,   0,  -1,   4,  -1,   0,  16,   9,  -3, 1000, 1.072, 33.975, 214,   0,   0,  13, -124, 439, 2068,   0,   0,   0,   0, 1200, 1219, 1232, 1200, -36496, ANGLE_MODE, SMALL_ANGLE, IDLE, 1, 1
 69, 28317714,   3,   1, -35,   0,   0,  -1,   4,  -1,   0,  16,   9,  -3, 1000, 1.072, 33.975, 214,   0,   0,  13, -123, 439, 2068,   0,   0,   0,   0, 1200, 1219, 1232, 1200, -36496, ANGLE_MODE, SMALL_ANGLE, IDLE, 1, 1
 70, 28318719,   3,   2, -33,   0,   0,  -1,   3,   0,   0,  15,   9,  -3, 1000, 1.072, 33.975, 214,   0,   0,  12, -122, 439, 2067,   0,   0,   0,   0, 1200, 1218, 1231, 1200, -36496, ANGLE_MODE, SMALL_ANGLE, IDLE, 1, 1
 71, 28319732,   2,   2, -32,   0,   0,  -1,   1,   0,   0,  15,   9,  -3, 1000, 1.072, 33.975, 214,   0,  -1,  12, -121, 439, 2067,   0,   0,   0,   0, 1200, 1218, 1230, 1200, -36496, ANGLE_MODE, SMALL_ANGLE, IDLE, 1, 1
 72, 28320741,   2,   3, -31,   0,   0,  -1,   0,   2,   0,  15,   9,  -3, 1000, 1.072, 33.975, 214,   0,  -1,  11, -121, 440, 2067,   0,   0,   0,   0, 1200, 1217, 1229, 1200, -36496, ANGLE_MODE, SMALL_ANGLE, IDLE, 1, 1
 73, 28321757,   2,   3, -28,   0,   0,  -1,  -2,   4,   0,  15,   9,  -3, 1000, 1.072, 33.975, 214,   0,  -1,  10, -120, 440, 2067,   0,   0,   0,   0, 1200, 1215, 1228, 1200, -36496, ANGLE_MODE, SMALL_ANGLE, IDLE, 1, 1
 74, 28322759,   3,   4, -26,   0,   0,  -2,  -2,   5,   0,  15,   9,  -3, 1000, 1.072, 33.975, 214,   0,  -1,   9, -120, 440, 2067,   0,   0,   0,   0, 1200, 1212, 1228, 1200, -36496, ANGLE_MODE, SMALL_ANGLE, IDLE, 1, 1
 75, 28323770,   3,   4, -24,   0,   0,  -2,  -1,   6,   0,  15,   9,  -3, 1000, 1.072, 33.975, 214,   0,  -2,   9, -119, 440, 2067,   0,   0,   0,   0, 1200, 1209, 1228, 1200, -36496, ANGLE_MODE, SMALL_ANGLE, IDLE, 1, 1
 76, 28324780,   3,   5, -22,   0,   0,  -2,   0,   7,   0,  15,   9,  -3, 1000, 1.072, 33.975, 214,   0,  -2,   8, -119, 440, 2068,   0,   0,   0,   0, 1200, 1205, 1229, 1200, -36496, ANGLE_MODE, SMALL_ANGLE, IDLE, 1, 1
 77, 28325798,   3,   5, -21,   0,   0,  -2,   0,   7,   0,  15,   9,  -3, 1000, 1.072, 33.975, 214,   0,  -2,   8, -119, 440, 2068,   0,   0,   0,   0, 1200, 1205, 1229, 1200, -36496, ANGLE_MODE, SMALL_ANGLE, IDLE, 1, 1
 78, 28326813,   2,   5, -20,   0,   0,  -2,   0,   6,   0,  15,   9,  -3, 1000, 1.072, 33.975, 214,   0,  -3,   7, -119, 440, 2068,   0,   0,   0,   0, 1200, 1204, 1228, 1200, -36496, ANGLE_MODE, SMALL_ANGLE, IDLE, 1, 1
 79, 28327830,   2,   6, -19,   0,   0,   0,   0,   5,   0,  16,   8,  -3, 1000, 1.072, 33.975, 214,   1,  -3,   7, -119, 439, 2069,   0,   0,   0,   0, 1200, 1204, 1223, 1200, -36496, ANGLE_MODE, SMALL_ANGLE, IDLE, 1, 1
 80, 28328847,   2,   6, -18,   0,   0,   0,  -1,   4,   0,  16,   8,  -3, 1000, 1.072, 33.975, 214,   1,  -3,   7, -119, 439, 2069,   0,   0,   0,   0, 1200, 1205, 1221, 1200, -36496, ANGLE_MODE, SMALL_ANGLE, IDLE, 1, 1
 81, 28329854,   2,   6, -18,   0,   0,   0,  -2,   3,   0,  16,   8,  -3, 1000, 1.072, 33.975, 214,   1,  -3,   6, -119, 438, 2070,   0,   0,   0,   0, 1200, 1206, 1220, 1200, -36496, ANGLE_MODE, SMALL_ANGLE, IDLE, 1, 1
 82, 28330855,   1,   6, -17,   0,   0,   0,  -3,   2,   0,  16,   8,  -3, 1000, 1.072, 33.975, 214,   1,  -3,   6, -119, 438, 2070,   0,   0,   0,   0, 1200, 1208, 1218, 1200, -36496, ANGLE_MODE, SMALL_ANGLE, IDLE, 1, 1
 83, 28331867,   0,   6, -16,   0,   0,   0,  -4,   1,   0,  16,   8,  -3, 1000, 1.072, 33.975, 214,   2,  -3,   6, -119, 437, 2070,   0,   0,   0,   0, 1200, 1210, 1215, 1200, -36496, ANGLE_MODE, SMALL_ANGLE, IDLE, 1, 1
 84, 28332872,   0,   5, -16,   0,   0,   0,  -6,   0,   0,  16,   8,  -3, 1000, 1.072, 33.975, 214,   3,  -3,   6, -118, 436, 2071,   0,   0,   0,   0, 1200, 1212, 1212, 1200, -36496, ANGLE_MODE, SMALL_ANGLE, IDLE, 1, 1
 85, 28333879,   0,   5, -16,   0,   0,   0,  -8,   0,   0,  16,   8,  -3, 1000, 1.072, 33.975, 214,   3,  -2,   6, -117, 436, 2071,   0,   0,   0,   0, 1200, 1215, 1209, 1200, -36496, ANGLE_MODE, SMALL_ANGLE, IDLE, 1, 1
 86, 28334894,  -1,   5, -15,   0,   0,   0,  -9,  -1,   0,  16,   8,  -3, 1000, 1.072, 33.975, 214,   3,  -2,   5, -116, 435, 2071,   0,   0,   0,   0, 1200, 1216, 1206, 1200, -36496, ANGLE_MODE, SMALL_ANGLE, IDLE, 1, 1
 87, 28335907,  -1,   5, -15,   0,   0,   0,  -9,  -2,   0,  16,   8,  -3, 1000, 1.072, 33.975, 214,   3,  -2,   5, -115, 435, 2071,   0,   0,   0,   0, 1200, 1217, 1206, 1200, -36496, ANGLE_MODE, SMALL_ANGLE, IDLE, 1, 1
 88, 28336910,   0,   4, -14,   0,   0,   0,  -7,  -3,   0,  16,   8,  -3, 1000, 1.072, 33.975, 214,   3,  -2,   5, -113, 435, 2071,   0,   0,   0,   0, 1200, 1215, 1207, 1200, -36496, ANGLE_MODE, SMALL_ANGLE, IDLE, 1, 1
 89, 28337915,   0,   4, -15,   0,   0,   0,  -4,  -3,   0,  16,   8,  -3, 1000, 1.072, 33.975, 214,   3,  -2,   5, -112, 435, 2071,   0,   0,   0,   0, 1200, 1213, 1209, 1200, -36496, ANGLE_MODE, SMALL_ANGLE, IDLE, 1, 1
 90, 28338919,   0,   4, -14,   0,   0,   0,  -1,  -2,   0,  16,   8,  -3, 1000, 1.072, 33.975, 214,   3,  -2,   5, -110, 436, 2071,   0,   0,   0,   0, 1200, 1211, 1211, 1200, -36496, ANGLE_MODE, SMALL_ANGLE, IDLE, 1, 1
 91, 28339931,   0,   5, -12,   0,   0,   0,   0,  -1,   0,  16,   8,  -3, 1000, 1.072, 33.975, 214,   3,  -2,   4, -108, 437, 2071,   0,   0,   0,   0, 1200, 1206, 1212, 1200, -36496, ANGLE_MODE, SMALL_ANGLE, IDLE, 1, 1
 92, 28340940,   0,   5, -10,   0,   0,   0,   1,   0,   0,  16,   8,  -3, 1000, 1.072, 33.975, 214,   2,  -3,   3, -106, 437, 2071,   0,   0,   0,   0, 1200, 1202, 1213, 1200, -36496, ANGLE_MODE, SMALL_ANGLE, IDLE, 1, 1
 93, 28341955,   0,   6,  -8,   0,   0,   0,   3,   1,   0,  16,   8,  -3, 1000, 1.072, 33.975, 214,   2,  -3,   3, -105, 438, 2071,   0,   0,   0,   0, 1200, 1200, 1215, 1200, -36496, ANGLE_MODE, SMALL_ANGLE, IDLE, 1, 1
 94, 28342960,   1,   6,  -6,   0,   0,  -1,   4,   3,   0,  16,   8,  -3, 1000, 1.072, 33.975, 214,   2,  -3,   2, -104, 439, 2071,   0,   0,   0,   0, 1200, 1200, 1217, 1200, -36496, ANGLE_MODE, SMALL_ANGLE, IDLE, 1, 1
 95, 28343971,   1,   7,  -5,   0,   0,  -1,   6,   5,   0,  16,   8,  -3, 1000, 1.072, 33.975, 214,   1,  -4,   2, -103, 440, 2070,   0,   0,   0,   0, 1200, 1200, 1220, 1200, -36496, ANGLE_MODE, SMALL_ANGLE, IDLE, 1, 1
 96, 28344985,   2,   7,  -6,   0,   0,  -1,   8,   6,   0,  16,   8,  -3, 1000, 1.072, 33.975, 214,   1,  -4,   2, -102, 441, 2070,   0,   0,   0,   0, 1200, 1200, 1223, 1200, -36496, ANGLE_MODE, SMALL_ANGLE, IDLE, 1, 1
 97, 28346004,   2,   7,  -4,   0,   0,  -1,   8,   6,   0,  16,   8,  -3, 1000, 1.072, 33.975, 214,   1,  -4,   1, -101, 441, 2070,   0,   0,   0,   0, 1200, 1200, 1223, 1200, -36496, ANGLE_MODE, SMALL_ANGLE, IDLE, 1, 1
 98, 28347011,   1,   8,  -3,   0,   0,  -1,   7,   6,   0,  16,   8,  -3, 1000, 1.072, 33.975, 214,   1,  -4,   1, -101, 441, 2070,   0,   0,   0,   0, 1201, 1200, 1220, 1200, -36496, ANGLE_MODE, SMALL_ANGLE, IDLE, 1, 1
 99, 28348029,   1,   8,  -2,   0,   0,   0,   3,   5,   0,  16,   7,  -3, 1000, 1.072, 33.975, 214,   2,  -4,   1, -100, 441, 2070,   0,   0,   0,   0, 1204, 1200, 1215, 1200, -36496, ANGLE_MODE, SMALL_ANGLE, IDLE, 1, 1
100, 28349040,   0,   8,  -1,   0,   0,   0,   0,   4,   0,  16,   7,  -3, 1000, 1.081, 34.025, 214,   2,  -4,   0, -99, 440, 2070,   0,   0,   0,   0, 1208, 1200, 1209, 1200, -36496, ANGLE_MODE, SMALL_ANGLE, IDLE, 1, 1
101, 28350048,   0,   7,   0,   0,   0,   0,  -4,   2,   0,  16,   7,  -3, 1000, 1.081, 34.025, 214,   2,  -4,   0, -98, 439, 2070,   0,   0,   0,   0, 1210, 1200, 1205, 1200, -36496, ANGLE_MODE, SMALL_ANGLE, IDLE, 1, 1
102, 28351067,   0,   7,   0,   0,   0,   0,  -7,   0,   0,  16,   7,  -3, 1000, 1.081, 34.025, 214,   2,  -4,   0, -96, 439, 2069,   0,   0,   0,   0, 1210, 1200, 1202, 1200, -36496, ANGLE_MODE, SMALL_ANGLE, IDLE, 1, 1
103, 28352079,   0,   7,   0,   0,   0,   0,  -7,  -1,   0,  16,   7,  -3, 1000, 1.081, 34.025, 214,   2,  -4,   0, -95, 438, 2069,   0,   0,   0,   0, 1210, 1200, 1200, 1200, -36496, ANGLE_MODE, SMALL_ANGLE, IDLE, 1, 1
104, 28353096,   0,   6,   1,   0,   0,   0,  -5,  -3,   0,  16,   7,  -3, 1000, 1.081, 34.025, 214,   2,  -3,  -1, -93, 437, 2069,   0,   0,   0,   0, 1206, 1200, 1200, 1200, -36496, ANGLE_MODE, SMALL_ANGLE, IDLE, 1, 1
105, 28354104,   0,   5,   2,   0,   0,   0,  -2,  -5,   0,  16,   7,  -3, 1000, 1.081, 34.025, 214,   2,  -3,  -1, -91, 437, 2069,   0,   0,   0,   0, 1204, 1200, 1200, 1200, -36496, ANGLE_MODE, SMALL_ANGLE, IDLE, 1, 1
106, 28355113,   0,   5,   4,   0,   0,   0,  -1,  -6,   0,  16,   7,  -3, 1000, 1.081, 34.025, 214,   2,  -3,  -2, -89, 436, 2069,   0,   0,   0,   0, 1203, 1200, 1200, 1202, -36496, ANGLE_MODE, SMALL_ANGLE, IDLE, 1, 1
107, 28356127,   0,   5,   4,   0,   0,   0,   0,  -6,   0,  16,   7,  -3, 1000, 1.081, 34.025, 214,   2,  -3,  -2, -87, 436, 2070,   0,   0,   0,   0, 1203, 1200, 1200, 1203, -36497, ANGLE_MODE, SMALL_ANGLE, IDLE, 1, 1
108, 28357134,   0,   5,   6,   0,   0,   0,   0,  -6,   0,  16,   7,  -3, 1000, 1.081, 34.025, 214,   2,  -2,  -3, -85, 437, 2070,   0,   0,   0,   0, 1205, 1200, 1200, 1204, -36497, ANGLE_MODE, SMALL_ANGLE, IDLE, 1, 1
109, 28358143,   0,   5,   7,   0,   0,   0,   0,  -4,   0,  16,   7,  -3, 1000, 1.081, 34.025, 214,   2,  -2,  -3, -83, 437, 2070,   0,   0,   0,   0, 1206, 1200, 1200, 1204, -36497, ANGLE_MODE, SMALL_ANGLE, IDLE, 1, 1
110, 28359157,   0,   5,   6,   0,   0,   0,   0,  -2,   0,  16,   7,  -3, 1000, 1.081, 34.025, 214,   2,  -2,  -3, -82, 438, 2070,   0,   0,   0,   0, 1206, 1200, 1200, 1204, -36497, ANGLE_MODE, SMALL_ANGLE, IDLE, 1, 1
111, 28360169,   0,   5,   4,   0,   0,   0,   1,  -1,   0,  16,   7,  -3, 1000, 1.081, 34.025, 214,   2,  -2,  -2, -81, 440, 2070,   0,   0,   0,   0, 1205, 1200, 1201, 1202, -36497, ANGLE_MODE, SMALL_ANGLE, IDLE, 1, 1
112, 28361176,   0,   5,   3,   0,   0,   0,   2,   0,   0,  16,   7,  -3, 1000, 1.081, 34.025, 214,   2,  -3,  -2, -80, 441, 2069,   0,   0,   0,   0, 1205, 1200, 1204, 1201, -36497, ANGLE_MODE, SMALL_ANGLE, IDLE, 1, 1
113, 28362179,   0,   5,   4,   0,   0,   0,   2,   0,   0,  16,   7,  -3, 1000, 1.081, 34.025, 214,   2,  -3,  -2, -80, 443, 2069,   0,   0,   0,   0, 1205, 1200, 1205, 1201, -36497, ANGLE_MODE, SMALL_ANGLE, IDLE, 1, 1
114, 28363194,   0,   6,   5,   0,   0,   0,   2,   1,   0,  16,   7,  -3, 1000, 1.081, 34.025, 214,   2,  -3,  -2, -80, 444, 2069,   0,   0,   0,   0, 1208, 1200, 1204, 1200, -36497, ANGLE_MODE, SMALL_ANGLE, IDLE, 1, 1
115, 28364212,   0,   6,   5,   0,   0,   0,   1,   2,   0,  16,   7,  -3, 1000, 1.081, 34.025, 214,   2,  -3,  -2, -79, 445, 2070,   0,   0,   0,   0, 1209, 1200, 1204, 1200, -36497, ANGLE_MODE, SMALL_ANGLE, IDLE, 1, 1
116, 28365228,   0,   6,   7,   0,   0,   0,   0,   3,   0,  16,   7,  -3, 1000, 1.081, 34.025, 214,   2,  -3,  -3, -79, 446, 2070,   0,   0,   0,   0, 1212, 1200, 1203, 1200, -36497, ANGLE_MODE, SMALL_ANGLE, IDLE, 1, 1
117, 28366235,   0,   6,   7,   0,   0,   0,   0,   3,   0,  16,   7,  -3, 1000, 1.081, 34.025, 214,   2,  -3,  -3, -78, 447, 2070,   0,   0,   0,   0, 1212, 1200, 1203, 1200, -36497, ANGLE_MODE, SMALL_ANGLE, IDLE, 1, 1
118, 28367246,   0,   6,   5,   0,   0,   0,   0,   2,   0,  16,   7,  -3, 1000, 1.081, 34.025, 214,   2,  -3,  -2, -78, 447, 2070,   0,   0,   0,   0, 1211, 1200, 1203, 1200, -36497, ANGLE_MODE, SMALL_ANGLE, IDLE, 1, 1
119, 28368254,   0,   6,   3,   0,   0,   0,   0,   1,   0,  16,   7,  -1, 1000, 1.081, 34.025, 225,   2,  -3,  -2, -76, 447, 2069,   0,   0,   0,   0, 1209, 1200, 1203, 1200, -36497, ANGLE_MODE, SMALL_ANGLE, IDLE, 1, 1
120, 28369269,   0,   6,   2,   0,   0,   0,  -2,   0,   0,  16,   7,  -1, 1000, 1.081, 34.025, 225,   3,  -3,  -1, -75, 447, 2069,   0,   0,   0,   0, 1208, 1200, 1201, 1200, -36497, ANGLE_MODE, SMALL_ANGLE, IDLE, 1, 1
121, 28370275,   0,   5,   3,   0,   0,   0,  -3,  -1,   0,  16,   7,  -1, 1000, 1.081, 34.025, 225,   3,  -2,  -1, -73, 448, 2069,   0,   0,   0,   0, 1208, 1200, 1200, 1200, -36497, ANGLE_MODE, SMALL_ANGLE, IDLE, 1, 1
122, 28371282,  -1,   4,   4,   0,   0,   0,  -5,  -3,   0,  16,   7,  -1, 1000, 1.081, 34.025, 225,   3,  -2,  -2, -71, 448, 2069,   0,   0,   0,   0, 1209, 1201, 1200, 1200, -36497, ANGLE_MODE, SMALL_ANGLE, IDLE, 1, 1
123, 28372296,  -1,   4,   4,   0,   0,   0,  -6,  -5,   0,  16,   7,  -1, 1000, 1.081, 34.025, 225,   3,  -2,  -2, -68, 448, 2069,   0,   0,   0,   0, 1207, 1204, 1200, 1200, -36497, ANGLE_MODE, SMALL_ANGLE, IDLE, 1, 1
124, 28373314,  -1,   3,   4,   0,   0,   0,  -6,  -7,   0,  16,   7,  -1, 1000, 1.081, 34.025, 225,   3,  -1,  -2, -66, 449, 2068,   0,   0,   0,   0, 1206, 1205, 1200, 1200, -36497, ANGLE_MODE, SMALL_ANGLE, IDLE, 1, 1
125, 28374323,  -1,   3,   4,   0,   0,   0,  -4,  -8,   0,  16,   7,  -1, 1000, 1.081, 34.025, 225,   3,  -1,  -2, -63, 450, 2068,   0,   0,   0,   0, 1203, 1204, 1200, 1203, -36497, ANGLE_MODE, SMALL_ANGLE, IDLE, 1, 1
126, 28375339,   0,   2,   4,   0,   0,   0,  -1,  -8,   0,  16,   7,  -1, 1000, 1.081, 34.025, 225,   2,  -1,  -2, -61, 450, 2067,   0,   0,   0,   0, 1200, 1201, 1200, 1206, -36497, ANGLE_MODE, SMALL_ANGLE, IDLE, 1, 1
127, 28376344,   2,   2,   4,   0,   0,   0,   4,  -7,   0,  16,   7,  -1, 1000, 1.081, 34.025, 225,   1,  -1,  -2, -58, 451, 2067,   0,   0,   0,   0, 1200, 1200, 1200, 1211, -36497, ANGLE_MODE, SMALL_ANGLE, IDLE, 1, 1
128, 28377359,   3,   2,   5,   0,   0,   0,  10,  -5,   0,  16,   7,  -1, 1000, 1.081, 34.025, 225,   0,  -1,  -2, -57, 451, 2067,   0,   0,   0,   0, 1200, 1200, 1203, 1216, -36497, ANGLE_MODE, SMALL_ANGLE, IDLE, 1, 1
129, 28378370,   4,   2,   5,   0,   0,   0,  14,  -4,   0,  16,   7,  -1, 1000, 1.081, 34.025, 225,   0,  -1,  -2, -56, 452, 2066,   0,   0,   0,   0, 1200, 1200, 1208, 1218, -36497, ANGLE_MODE, SMALL_ANGLE, IDLE, 1, 1
130, 28379376,   4,   2,   5,   0,   0,   0,  16,  -2,   0,  16,   7,  -1, 1000, 1.081, 34.025, 225,  -1,  -1,  -2, -56, 452, 2065,   0,   0,   0,   0, 1200, 1200, 1212, 1218, -36497, ANGLE_MODE, SMALL_ANGLE, IDLE, 1, 1
131, 28380390,   4,   2,   5,   0,   0,   0,  15,   0,   0,  16,   7,  -1, 1000, 1.081, 34.025, 225,  -1,  -1,  -2, -56, 452, 2065,   0,   0,   0,   0, 1200, 1200, 1212, 1216, -36497, ANGLE_MODE, SMALL_ANGLE, IDLE, 1, 1
132, 28381392,   3,   2,   4,   0,   0,   0,  10,   0,   0,  16,   7,  -1, 1000, 1.081, 34.025, 225,   0,  -1,  -2, -57, 452, 2065,   0,   0,   0,   0, 1200, 1200, 1208, 1211, -36497, ANGLE_MODE, SMALL_ANGLE, IDLE, 1, 1
133, 28382412,   2,   2,   3,   0,   0,   0,   4,   0,   0,  16,   7,  -1, 1000, 1.081, 34.025, 225,   1,   0,  -1, -58, 452, 2065,   0,   0,   0,   0, 1200, 1200, 1204, 1206, -36497, ANGLE_MODE, SMALL_ANGLE, IDLE, 1, 1
134, 28383417,   2,   1,   3,   0,   0,   0,  -2,  -1,   0,  16,   7,  -1, 1000, 1.081, 34.025, 225,   1,   0,  -2, -59, 452, 2066,   0,   0,   0,   0, 1203, 1200, 1200, 1202, -36497, ANGLE_MODE, SMALL_ANGLE, IDLE, 1, 1
135, 28384427,   1,   1,   5,   0,   0,   0,  -7,  -2,   0,  16,   7,  -1, 1000, 1.081, 34.025, 225,   1,   0,  -2, -60, 451, 2066,   0,   0,   0,   0, 1206, 1201, 1200, 1201, -36497, ANGLE_MODE, SMALL_ANGLE, IDLE, 1, 1
136, 28385432,   1,   0,   6,   0,   0,   0,  -8,  -4,   0,  16,   7,  -1, 1000, 1.081, 34.025, 225,   1,   1,  -2, -62, 451, 2066,   0,   0,   0,   0, 1207, 1203, 1200, 1202, -36497, ANGLE_MODE, SMALL_ANGLE, IDLE, 1, 1
137, 28386448,   2,   0,   7,   0,   0,   0,  -7,  -5,   0,  16,   7,  -1, 1000, 1.081, 34.025, 225,   1,   1,  -3, -63, 451, 2066,   0,   0,   0,   0, 1206, 1202, 1200, 1205, -36497, ANGLE_MODE, SMALL_ANGLE, IDLE, 1, 1
138, 28387456,   2,   0,   8,   0,   0,   0,  -4,  -6,   0,  16,   7,  -1, 1000, 1.081, 34.025, 225,   1,   2,  -3, -63, 451, 2067,   0,   0,   0,   0, 1203, 1201, 1200, 1210, -36497, ANGLE_MODE, SMALL_ANGLE, IDLE, 1, 1
139, 28388464,   1,  -1,   8,   0,   0,   0,  -2,  -7,   0,  15,   7,   0, 1000, 1.081, 34.025, 225,   1,   2,  -3, -64, 452, 2067,   0,   0,   0,   0, 1200, 1201, 1200, 1212, -36497, ANGLE_MODE, SMALL_ANGLE, IDLE, 1, 1
140, 28389484,   1,  -1,   7,   0,   0,   0,   0,  -8,   0,  15,   7,   0, 1000, 1.081, 34.125, 225,   1,   2,  -3, -64, 453, 2067,   0,   0,   0,   0, 1200, 1201, 1200, 1214, -36497, ANGLE_MODE, SMALL_ANGLE, IDLE, 1, 1
141, 28390489,   1,  -1,   6,   0,   0,   0,   0,  -8,   0,  15,   7,   0, 1000, 1.081, 34.125, 225,   1,   2,  -2, -63, 455, 2067,   0,   0,   0,   0, 1200, 1201, 1200, 1213, -36497, ANGLE_MODE, SMALL_ANGLE, IDLE, 1, 1
142, 28391501,   1,  -1,   4,   0,   0,   0,   0,  -7,   0,  15,   7,   0, 1000, 1.081, 34.125, 225,   2,   2,  -2, -63, 457, 2067,   0,   0,   0,   0, 1200, 1202, 1200, 1211, -36497, ANGLE_MODE, SMALL_ANGLE, IDLE, 1, 1
143, 28392517,   1,  -1,   4,   0,   0,   0,  -1,  -4,   0,  15,   7,   0, 1000, 1.081, 34.125, 225,   1,   2,  -1, -62, 459, 2067,   0,   0,   0,   0, 1200, 1202, 1200, 1208, -36497, ANGLE_MODE, SMALL_ANGLE, IDLE, 1, 1
144, 28393518,   1,  -1,   2,   0,   0,   0,  -1,  -2,   0,  15,   7,   0, 1000, 1.081, 34.125, 225,   1,   2,  -1, -62, 461, 2067,   0,   0,   0,   0, 1200, 1200, 1200, 1205, -36497, ANGLE_MODE, SMALL_ANGLE, IDLE, 1, 1
145, 28394531,   1,  -1,   2,   0,   0,   0,   0,   0,   0,  15,   7,   0, 1000, 1.081, 34.125, 225,   1,   2,  -1, -61, 462, 2067,   0,   0,   0,   0, 1200, 1200, 1200, 1203, -36497, ANGLE_MODE, SMALL_ANGLE, IDLE, 1, 1
146, 28395548,   2,  -1,   1,   0,   0,   0,   0,   1,   0,  15,   7,   0, 1000, 1.081, 34.125, 225,   1,   2,  -1, -61, 464, 2066,   0,   0,   0,   0, 1200, 1200, 1201, 1202, -36497, ANGLE_MODE, SMALL_ANGLE, IDLE, 1, 1
147, 28396558,   2,   0,   0,   0,   0,   0,   1,   2,   0,  15,   7,   0, 1000, 1.081, 34.125, 225,   1,   2,   0, -61, 464, 2065,   0,   0,   0,   0, 1200, 1200, 1204, 1202, -36497, ANGLE_MODE, SMALL_ANGLE, IDLE, 1, 1
148, 28397570,   2,   0,   0,   0,   0,   0,   2,   3,   0,  15,   7,   0, 1000, 1.081, 34.125, 225,   1,   1,   0, -62, 463, 2064,   0,   0,   0,   0, 1200, 1200, 1206, 1202, -36497, ANGLE_MODE, SMALL_ANGLE, IDLE, 1, 1
149, 28398582,   1,   0,   0,   0,   0,   0,   2,   3,   0,  15,   7,   0, 1000, 1.081, 34.125, 225,   1,   1,   0, -62, 463, 2064,   0,   0,   0,   0, 1200, 1200, 1206, 1201, -36497, ANGLE_MODE, SMALL_ANGLE, IDLE, 1, 1
150, 28399589,   1,   0,   0,   0,   0,   0,   1,   3,   0,  14,   7,   0, 1000, 1.081, 34.125, 225,   1,   1,   0, -63, 461, 2065,   0,   0,   0,   0, 1200, 1200, 1205, 1201, -36497, ANGLE_MODE, SMALL_ANGLE, IDLE, 1, 1
151, 28400605,   2,   0,   2,   0,   0,   0,   0,   2,   0,  14,   7,   0, 1000, 1.081, 34.125, 225,   1,   1,  -1, -64, 460, 2065,   0,   0,   0,   0, 1201, 1200, 1202, 1202, -36497, ANGLE_MODE, SMALL_ANGLE, IDLE, 1, 1
152, 28401617,   2,  -1,   3,   0,   0,   0,   0,   1,   0,  14,   7,   0, 1000, 1.081, 34.125, 225,   0,   2,  -1, -65, 458, 2064,   0,   0,   0,   0, 1200, 1200, 1200, 1205, -36497, ANGLE_MODE, SMALL_ANGLE, IDLE, 1, 1
153, 28402628,   3,  -1,   3,   0,   0,   0,   1,  -1,   0,  14,   7,   0, 1000, 1.081, 34.125, 225,   0,   2,  -1, -67, 456, 2064,   0,   0,   0,   0, 1200, 1200, 1200, 1208, -36497, ANGLE_MODE, SMALL_ANGLE, IDLE, 1, 1
154, 28403636,   2,  -2,   4,   0,   0,   0,   3,  -4,   0,  14,   7,   0, 1000, 1.081, 34.125, 225,   0,   3,  -2, -68, 454, 2063,   0,   0,   0,   0, 1200, 1200, 1200, 1213, -36497, ANGLE_MODE, SMALL_ANGLE, IDLE, 1, 1
155, 28404652,   2,  -3,   3,   0,   0,   0,   3,  -7,   0,  14,   7,   0, 1000, 1.081, 34.125, 225,   0,   3,  -1, -69, 453, 2063,   0,   0,   0,   0, 1200, 1200, 1200, 1215, -36497, ANGLE_MODE, SMALL_ANGLE, IDLE, 1, 1
156, 28405662,   1,  -4,   3,   0,   0,   0,   1,  -9,   0,  14,   7,   0, 1000, 1.081, 34.125, 225,   1,   4,  -1, -70, 452, 2064,   0,   0,   0,   0, 1200, 1204, 1200, 1215, -36497, ANGLE_MODE, SMALL_ANGLE, IDLE, 1, 1
157, 28406670,   1,  -5,   4,   0,   0,   0,  -1, -10,   0,  14,   7,   0, 1000, 1.081, 34.125, 225,   1,   4,  -1, -71, 452, 2064,   0,   0,   0,   0, 1200, 1208, 1200, 1214, -36497, ANGLE_MODE, SMALL_ANGLE, IDLE, 1, 1
158, 28407680,   1,  -5,   2,   0,   0,   0,  -4, -10,   0,  14,   7,   0, 1000, 1.081, 34.125, 225,   1,   4,  -1, -72, 453, 2064,   0,   0,   0,   0, 1200, 1211, 1200, 1212, -36497, ANGLE_MODE, SMALL_ANGLE, IDLE, 1, 1
159, 28408689,   2,  -5,   2,   0,   0,   0,  -4,  -9,   0,  13,   7,   2, 1000, 1.081, 34.125, 225,   0,   5,  -1, -73, 454, 2064,   0,   0,   0,   0, 1200, 1210, 1200, 1211, -36497, ANGLE_MODE, SMALL_ANGLE, IDLE, 1, 1
160, 28409696,   3,  -5,   2,   0,   0,   0,  -1,  -7,   0,  13,   7,   2, 1000, 1.081, 34.125, 225,   0,   5,  -1, -75, 456, 2064,   0,   0,   0,   0, 1200, 1207, 1200, 1212, -36497, ANGLE_MODE, SMALL_ANGLE, IDLE, 1, 1
161, 28410699,   3,  -5,   2,   0,   0,   0,   2,  -5,   0,  13,   7,   2, 1000, 1.081, 34.125, 225,  -1,   4,  -1, -76, 458, 2064,   0,   0,   0,   0, 1200, 1201, 1200, 1214, -36497, ANGLE_MODE, SMALL_ANGLE, IDLE, 1, 1
162, 28411705,   4,  -4,   3,   0,   0,   0,   6,  -1,   0,  13,   7,   2, 1000, 1.081, 34.125, 225,  -1,   4,  -1, -77, 459, 2064,   0,   0,   0,   0, 1200, 1200, 1201, 1214, -36497, ANGLE_MODE, SMALL_ANGLE, IDLE, 1, 1
163, 28412720,   4,  -3,   3,   0,   0,   0,   8,   2,   0,  13,   7,   2, 1000, 1.081, 34.125, 225,  -1,   3,  -1, -78, 461, 2065,   0,   0,   0,   0, 1200, 1200, 1205, 1212, -36497, ANGLE_MODE, SMALL_ANGLE, IDLE, 1, 1
164, 28413729,   3,  -3,   4,   0,   0,   0,   6,   6,   0,  13,   7,   2, 1000, 1.081, 34.125, 225,   0,   3,  -1, -79, 462, 2066,   0,   0,   0,   0, 1200, 1200, 1206, 1208, -36497, ANGLE_MODE, SMALL_ANGLE, IDLE, 1, 1
165, 28414746,   2,  -2,   2,   0,   0,   0,   2,   8,   0,  13,   7,   2, 1000, 1.081, 34.125, 225,   0,   3,  -1, -79, 464, 2066,   0,   0,   0,   0, 1202, 1200, 1205, 1202, -36497, ANGLE_MODE, SMALL_ANGLE, IDLE, 1, 1
166, 28415763,   1,  -2,   0,   0,   0,   0,  -2,   8,   0,  12,   7,   2, 1000, 1.081, 34.125, 225,   1,   3,   0, -79, 464, 2066,   0,   0,   0,   0, 1205, 1200, 1203, 1200, -36497, ANGLE_MODE, SMALL_ANGLE, IDLE, 1, 1
167, 28416768,   1,  -2,  -2,   0,   0,   0,  -6,   7,   0,  12,   7,   2, 1000, 1.081, 34.125, 225,   1,   3,   1, -79, 464, 2066,   0,   0,   0,   0, 1205, 1202, 1202, 1200, -36497, ANGLE_MODE, SMALL_ANGLE, IDLE, 1, 1
168, 28417774,   1,  -2,  -5,   0,   0,   0,  -7,   5,   0,  12,   7,   2, 1000, 1.081, 34.125, 225,   1,   2,   2, -78, 463, 2067,   0,   0,   0,   0, 1203, 1206, 1201, 1200, -36497, ANGLE_MODE, SMALL_ANGLE, IDLE, 1, 1
169, 28418781,   1,  -2,  -6,   0,   0,   0,  -6,   3,   0,  12,   7,   2, 1000, 1.081, 34.125, 225,   0,   2,   3, -78, 462, 2067,   0,   0,   0,   0, 1200, 1207, 1203, 1200, -36497, ANGLE_MODE, SMALL_ANGLE, IDLE, 1, 1
170, 28419786,   2,  -2,  -6,   0,   0,   0,  -2,   2,   0,  12,   7,   2, 1000, 1.081, 34.125, 225,   0,   2,   3, -77, 460, 2068,   0,   0,   0,   0, 1200, 1205, 1204, 1200, -36497, ANGLE_MODE, SMALL_ANGLE, IDLE, 1, 1
171, 28420801,   3,  -2,  -4,   0,   0,   0,   0,   1,   0,  12,   7,   2, 1000, 1.081, 34.125, 225,   0,   2,   2, -76, 458, 2068,   0,   0,   0,   0, 1200, 1201, 1206, 1200, -36497, ANGLE_MODE, SMALL_ANGLE, IDLE, 1, 1
172, 28421806,   2,  -2,  -3,   0,   0,   0,   3,   0,   0,  12,   7,   2, 1000, 1.081, 34.125, 225,   0,   3,   1, -76, 457, 2068,   0,   0,   0,   0, 1200, 1200, 1205, 1204, -36497, ANGLE_MODE, SMALL_ANGLE, IDLE, 1, 1
173, 28422816,   2,  -3,  -1,   0,   0,   0,   4,  -1,   0,  11,   7,   2, 1000, 1.081, 34.125, 225,   0,   3,   1, -76, 455, 2068,   0,   0,   0,   0, 1200, 1200, 1203, 1208, -36497, ANGLE_MODE, SMALL_ANGLE, IDLE, 1, 1
174, 28423827,   2,  -3,   0,   0,   0,   0,   3,  -3,   0,  11,   7,   2, 1000, 1.081, 34.125, 225,   0,   3,   0, -76, 454, 2068,   0,   0,   0,   0, 1200, 1201, 1200, 1210, -36497, ANGLE_MODE, SMALL_ANGLE, IDLE, 1, 1
175, 28424836,   2,  -3,   1,   0,   0,   0,   1,  -5,   0,  11,   7,   2, 1000, 1.081, 34.125, 225,   0,   4,   0, -77, 453, 2068,   0,   0,   0,   0, 1200, 1203, 1200, 1210, -36497, ANGLE_MODE, SMALL_ANGLE, IDLE, 1, 1
176, 28425852,   2,  -4,   1,   0,   0,   0,   0,  -5,   0,  11,   7,   2, 1000, 1.081, 34.125, 225,   0,   4,   0, -78, 453, 2069,   0,   0,   0,   0, 1200, 1205, 1200, 1210, -36497, ANGLE_MODE, SMALL_ANGLE, IDLE, 1, 1
177, 28426870,   2,  -4,   2,   0,   0,   0,  -1,  -5,   0,  11,   7,   2, 1000, 1.081, 34.125, 225,   0,   4,  -1, -80, 453, 2069,   0,   0,   0,   0, 1200, 1204, 1200, 1210, -36497, ANGLE_MODE, SMALL_ANGLE, IDLE, 1, 1
178, 28427876,   2,  -4,   1,   0,   0,   0,  -1,  -4,   0,  11,   7,   2, 1000, 1.081, 34.125, 225,   0,   4,   0, -83, 454, 2069,   0,   0,   0,   0, 1200, 1204, 1200, 1208, -36497, ANGLE_MODE, SMALL_ANGLE, IDLE, 1, 1
179, 28428891,   2,  -3,   1,   0,   0,   0,   0,  -2,   0,  11,   7,   3, 1000, 1.081, 34.125, 225,   0,   4,  -1, -86, 454, 2069,   0,   0,   0,   0, 1200, 1202, 1200, 1207, -36497, ANGLE_MODE, SMALL_ANGLE, IDLE, 1, 1
180, 28429909,   2,  -3,   0,   0,   0,   0,   0,   0,   0,  11,   7,   3, 1000, 1.090, 34.175, 225,   0,   3,   0, -89, 455, 2069,   0,   0,   0,   0, 1200, 1202, 1200, 1204, -36497, ANGLE_MODE, SMALL_ANGLE, IDLE, 1, 1
181, 28430929,   1,  -2,   0,   0,   0,   0,  -1,   1,   0,  11,   7,   3, 1000, 1.090, 34.175, 225,   1,   3,   0, -91, 455, 2070,   0,   0,   0,   0, 1200, 1201, 1200, 1201, -36497, ANGLE_MODE, SMALL_ANGLE, IDLE, 1, 1
182, 28431945,   0,  -2,  -2,   0,   0,   0,  -2,   3,   0,  11,   7,   3, 1000, 1.090, 34.175, 225,   1,   3,   1, -93, 456, 2071,   0,   0,   0,   0, 1200, 1202, 1201, 1200, -36497, ANGLE_MODE, SMALL_ANGLE, IDLE, 1, 1
183, 28432952,   0,  -2,  -3,   0,   0,   0,  -4,   4,   0,  11,   7,   3, 1000, 1.090, 34.175, 225,   1,   3,   2, -95, 457, 2071,   0,   0,   0,   0, 1202, 1204, 1201, 1200, -36497, ANGLE_MODE, SMALL_ANGLE, IDLE, 1, 1
184, 28433957,   0,  -2,  -4,   0,   0,   0,  -6,   5,   0,  11,   7,   3, 1000, 1.090, 34.175, 225,   2,   2,   2, -96, 457, 2071,   0,   0,   0,   0, 1204, 1205, 1201, 1200, -36497, ANGLE_MODE, SMALL_ANGLE, IDLE, 1, 1
185, 28434960,   0,  -1,  -3,   0,   0,   0,  -7,   5,   0,  11,   7,   3, 1000, 1.090, 34.175, 225,   2,   2,   2, -95, 457, 2071,   0,   0,   0,   0, 1204, 1206, 1200, 1200, -36497, ANGLE_MODE, SMALL_ANGLE, IDLE, 1, 1
186, 28435970,   0,  -1,  -3,   0,   0,   0,  -5,   4,   0,  11,   7,   3, 1000, 1.090, 34.175, 225,   1,   2,   2, -94, 457, 2071,   0,   0,   0,   0, 1203, 1205, 1201, 1200, -36497, ANGLE_MODE, SMALL_ANGLE, IDLE, 1, 1
187, 28436978,   0,  -1,  -3,   0,   0,   0,  -2,   3,   0,  11,   7,   3, 1000, 1.090, 34.175, 225,   1,   2,   2, -94, 457, 2070,   0,   0,   0,   0, 1200, 1203, 1202, 1200, -36497, ANGLE_MODE, SMALL_ANGLE, IDLE, 1, 1
188, 28437992,   1,  -1,  -3,   0,   0,   0,   0,   2,   0,  11,   7,   3, 1000, 1.090, 34.175, 225,   1,   2,   2, -92, 457, 2070,   0,   0,   0,   0, 1200, 1201, 1204, 1200, -36497, ANGLE_MODE, SMALL_ANGLE, IDLE, 1, 1
189, 28439004,   1,  -1,  -1,   0,   0,   0,   3,   2,   0,  11,   7,   3, 1000, 1.090, 34.175, 225,   0,   2,   1, -91, 457, 2071,   0,   0,   0,   0, 1200, 1200, 1206, 1202, -36497, ANGLE_MODE, SMALL_ANGLE, IDLE, 1, 1
190, 28440008,   2,   0,  -2,   0,   0,   0,   6,   2,   0,  11,   7,   3, 1000, 1.090, 34.175, 225,   0,   2,   1, -90, 456, 2070,   0,   0,   0,   0, 1200, 1200, 1208, 1204, -36497, ANGLE_MODE, SMALL_ANGLE, IDLE, 1, 1
191, 28441021,   2,   0,   0,   0,   0,   0,   7,   2,   0,  11,   7,   3, 1000, 1.090, 34.175, 225,   0,   1,   0, -89, 455, 2069,   0,   0,   0,   0, 1200, 1200, 1209, 1205, -36497, ANGLE_MODE, SMALL_ANGLE, IDLE, 1, 1
192, 28442025,   3,   0,   1,   0,   0,   0,   7,   3,   0,  11,   7,   3, 1000, 1.090, 34.175, 225,  -1,   1,   0, -89, 454, 2069,   0,   0,   0,   0, 1200, 1200, 1209, 1207, -36497, ANGLE_MODE, SMALL_ANGLE, IDLE, 1, 1
193, 28443035,   4,   0,   3,   0,   0,   0,   8,   4,   0,  11,   7,   3, 1000, 1.090, 34.175, 225,  -1,   1,  -1, -91, 453, 2068,   0,   0,   0,   0, 1200, 1200, 1209, 1208, -36497, ANGLE_MODE, SMALL_ANGLE, IDLE, 1, 1
194, 28444042,   4,   0,   4,   0,   0,   0,   8,   4,   0,  11,   7,   3, 1000, 1.090, 34.175, 225,  -2,   1,  -1, -92, 452, 2068,   0,   0,   0,   0, 1200, 1200, 1210, 1210, -36497, ANGLE_MODE, SMALL_ANGLE, IDLE, 1, 1
195, 28445057,   4,   0,   5,   0,   0,   0,   8,   3,   0,  11,   7,   3, 1000, 1.090, 34.175, 225,  -1,   1,  -2, -94, 452, 2068,   0,   0,   0,   0, 1200, 1200, 1209, 1210, -36497, ANGLE_MODE, SMALL_ANGLE, IDLE, 1, 1
196, 28446071,   4,   0,   5,   0,   0,   0,   6,   2,   0,  11,   7,   3, 1000, 1.090, 34.175, 225,  -1,   1,  -2, -97, 451, 2069,   0,   0,   0,   0, 1200, 1200, 1206, 1210, -36497, ANGLE_MODE, SMALL_ANGLE, IDLE, 1, 1
197, 28447086,   2,   0,   5,   0,   0,   0,   2,   1,   0,  11,   7,   3, 1000, 1.090, 34.175, 225,   0,   1,  -2, -100, 451, 2069,   0,   0,   0,   0, 1200, 1200, 1201, 1207, -36497, ANGLE_MODE, SMALL_ANGLE, IDLE, 1, 1
198, 28448092,   2,   0,   3,   0,   0,   0,  -2,   0,   0,  11,   7,   3, 1000, 1.090, 34.175, 225,   0,   1,  -1, -103, 450, 2069,   0,   0,   0,   0, 1202, 1200, 1200, 1203, -36497, ANGLE_MODE, SMALL_ANGLE, IDLE, 1, 1
199, 28449109,   1,   0,   2,   0,   0,   0,  -6,  -1,   0,  11,   7,   3, 1000, 1.090, 34.175, 225,   1,   1,   0, -105, 450, 2070,   0,   0,   0,   0, 1204, 1203, 1200, 1200, -36497, ANGLE_MODE, SMALL_ANGLE, IDLE, 1, 1
200, 28450127,   1,   0,   1,   0,   0,   0,  -9,  -1,   0,  11,   7,   3, 1000, 1.090, 34.175, 225,   1,   1,   0, -106, 450, 2070,   0,   0,   0,   0, 1205, 1206, 1200, 1200, -36497, ANGLE_MODE, SMALL_ANGLE, IDLE, 1, 1
201, 28451142,   1,   0,   1,   0,   0,   0,  -9,  -1,   0,  11,   7,   3, 1000, 1.090, 34.175, 225,   1,   1,   0, -107, 451, 2070,   0,   0,   0,   0, 1205, 1205, 1200, 1200, -36497, ANGLE_MODE, SMALL_ANGLE, IDLE, 1, 1
202, 28452148,   1,   0,   3,   0,   0,   0,  -7,   0,   0,  11,   7,   3, 1000, 1.090, 34.175, 225,   1,   1,  -1, -108, 452, 2071,   0,   0,   0,   0, 1205, 1203, 1200, 1200, -36497, ANGLE_MODE, SMALL_ANGLE, IDLE, 1, 1
203, 28453157,   1,   0,   4,   0,   0,   0,  -4,   0,   0,  11,   7,   3, 1000, 1.090, 34.175, 225,   0,   1,  -1, -107, 452, 2071,   0,   0,   0,   0, 1204, 1200, 1200, 1202, -36497, ANGLE_MODE, SMALL_ANGLE, IDLE, 1, 1
204, 28454170,   1,   0,   5,   0,   0,   0,  -1,   0,   0,  11,   7,   3, 1000, 1.090, 34.175, 225,   1,   1,  -2, -106, 453, 2071,   0,   0,   0,   0, 1203, 1200, 1200, 1204, -36497, ANGLE_MODE, SMALL_ANGLE, IDLE, 1, 1
205, 28455179,   1,   0,   5,   0,   0,   0,   0,   0,   0,  11,   7,   3, 1000, 1.090, 34.175, 225,   0,   1,  -2, -105, 454, 2071,   0,   0,   0,   0, 1204, 1200, 1200, 1205, -36497, ANGLE_MODE, SMALL_ANGLE, IDLE, 1, 1
206, 28456192,   1,   0,   5,   0,   0,   0,   1,   2,   0,  11,   7,   3, 1000, 1.090, 34.175, 225,   0,   0,  -2, -104, 454, 2072,   0,   0,   0,   0, 1204, 1200, 1200, 1204, -36497, ANGLE_MODE, SMALL_ANGLE, IDLE, 1, 1
207, 28457206,   1,   1,   4,   0,   0,   0,   1,   4,   0,  11,   7,   3, 1000, 1.090, 34.175, 225,   0,   0,  -1, -102, 454, 2071,   0,   0,   0,   0, 1205, 1200, 1203, 1201, -36497, ANGLE_MODE, SMALL_ANGLE, IDLE, 1, 1
208, 28458215,   1,   1,   4,   0,   0,   0,   1,   5,   0,  11,   7,   3, 1000, 1.090, 34.175, 225,   0,   0,  -1, -101, 454, 2071,   0,   0,   0,   0, 1206, 1200, 1205, 1200, -36497, ANGLE_MODE, SMALL_ANGLE, IDLE, 1, 1
209, 28459219,   1,   1,   2,   0,   0,   0,   0,   6,   0,  11,   7,   3, 1000, 1.090, 34.175, 225,   0,   0,  -1, -101, 454, 2070,   0,   0,   0,   0, 1206, 1200, 1206, 1200, -36497, ANGLE_MODE, SMALL_ANGLE, IDLE, 1, 1
210, 28460223,   1,   2,   2,   0,   0,   0,   0,   6,   0,  11,   7,   3, 1000, 1.090, 34.175, 225,   1,  -1,  -1, -101, 453, 2070,   0,   0,   0,   0, 1207, 1200, 1206, 1200, -36497, ANGLE_MODE, SMALL_ANGLE, IDLE, 1, 1
211, 28461240,   1,   3,   3,   0,   0,   0,   0,   5,   0,  11,   7,   3, 1000, 1.090, 34.175, 225,   1,  -1,  -1, -102, 451, 2070,   0,   0,   0,   0, 1209, 1200, 1204, 1200, -36497, ANGLE_MODE, SMALL_ANGLE, IDLE, 1, 1
212, 28462255,   1,   3,   4,   0,   0,   0,  -1,   5,   0,  11,   7,   3, 1000, 1.090, 34.175, 225,   1,  -1,  -1, -104, 450, 2070,   0,   0,   0,   0, 1209, 1200, 1203, 1200, -36497, ANGLE_MODE, SMALL_ANGLE, IDLE, 1, 1
213, 28463260,   1,   3,   4,   0,   0,   0,  -1,   5,   0,  11,   7,   3, 1000, 1.090, 34.175, 225,   1,  -1,  -1, -105, 448, 2071,   0,   0,   0,   0, 1210, 1200, 1202, 1200, -36497, ANGLE_MODE, SMALL_ANGLE, IDLE, 1, 1
214, 28464267,   0,   3,   4,   0,   0,   0,  -2,   4,   0,  11,   7,   3, 1000, 1.090, 34.175, 225,   1,  -1,  -1, -107, 447, 2070,   0,   0,   0,   0, 1209, 1200, 1202, 1200, -36497, ANGLE_MODE, SMALL_ANGLE, IDLE, 1, 1
215, 28465284,   0,   3,   2,   0,   0,   0,  -2,   2,   0,  11,   7,   3, 1000, 1.090, 34.175, 225,   1,  -1,  -1, -109, 446, 2070,   0,   0,   0,   0, 1208, 1200, 1201, 1200, -36497, ANGLE_MODE, SMALL_ANGLE, IDLE, 1, 1
216, 28466299,   0,   2,   1,   0,   0,   0,  -3,   1,   0,  11,   7,   3, 1000, 1.090, 34.175, 225,   2,  -1,   0, -111, 445, 2070,   0,   0,   0,   0, 1206, 1200, 1200, 1200, -36497, ANGLE_MODE, SMALL_ANGLE, IDLE, 1, 1
217, 28467314,   0,   2,   1,   0,   0,   0,  -4,   0,   0,  11,   7,   3, 1000, 1.090, 34.175, 225,   2,  -1,   0, -112, 445, 2070,   0,   0,   0,   0, 1206, 1200, 1200, 1200, -36497, ANGLE_MODE, SMALL_ANGLE, IDLE, 1, 1
218, 28468322,   0,   2,   1,   0,   0,   0,  -4,  -1,   0,  11,   7,   3, 1000, 1.090, 34.175, 225,   2,  -1,   0, -112, 446, 2071,   0,   0,   0,   0, 1206, 1201, 1200, 1200, -36497, ANGLE_MODE, SMALL_ANGLE, IDLE, 1, 1
219, 28469339,   0,   2,   3,   0,   0,   0,  -3,  -2,   0,  10,   6,   3, 1000, 1.090, 34.175, 225,   2,  -1,  -1, -112, 447, 2071,   0,   0,   0,   0, 1205, 1200, 1200, 1200, -36497, ANGLE_MODE, SMALL_ANGLE, IDLE, 1, 1
220, 28470343,   0,   2,   5,   0,   0,   0,  -1,  -2,   0,  10,   6,   3, 1000, 1.081, 33.975, 225,   1,  -1,  -2, -112, 448, 2071,   0,   0,   0,   0, 1205, 1200, 1200, 1204, -36498, ANGLE_MODE, SMALL_ANGLE, IDLE, 1, 1
221, 28471360,   1,   2,   6,   0,   0,   0,   1,  -2,   0,  10,   6,   3, 1000, 1.081, 33.975, 225,   1,  -1,  -2, -111, 449, 2070,   0,   0,   0,   0, 1203, 1200, 1200, 1206, -36498, ANGLE_MODE, SMALL_ANGLE, IDLE, 1, 1
222, 28472374,   1,   2,   5,   0,   0,   0,   4,  -1,   0,  10,   6,   3, 1000, 1.081, 33.975, 225,   0,  -1,  -2, -110, 450, 2069,   0,   0,   0,   0, 1201, 1200, 1202, 1207, -36498, ANGLE_MODE, SMALL_ANGLE, IDLE, 1, 1
223, 28473386,   1,   3,   2,   0,   0,   0,   5,   0,   0,  10,   6,   3, 1000, 1.081, 33.975, 225,   1,  -1,  -1, -110, 450, 2068,   0,   0,   0,   0, 1200, 1200, 1205, 1204, -36498, ANGLE_MODE, SMALL_ANGLE, IDLE, 1, 1
224, 28474388,   0,   3,  -1,   0,   0,   0,   4,   2,   0,  10,   6,   3, 1000, 1.081, 33.975, 225,   1,  -2,   1, -109, 450, 2068,   0,   0,   0,   0, 1200, 1200, 1209, 1200, -36498, ANGLE_MODE, SMALL_ANGLE, IDLE, 1, 1
225, 28475399,   0,   3,  -4,   0,   0,   0,   1,   3,   0,  10,   6,   3, 1000, 1.081, 33.975, 225,   2,  -2,   2, -108, 449, 2068,   0,   0,   0,   0, 1202, 1200, 1209, 1200, -36498, ANGLE_MODE, SMALL_ANGLE, IDLE, 1, 1
226, 28476404,   0,   4,  -8,   0,   0,   0,  -3,   4,   0,  10,   6,   3, 1000, 1.081, 33.975, 225,   2,  -2,   3, -108, 448, 2069,   0,   0,   0,   0, 1203, 1203, 1209, 1200, -36498, ANGLE_MODE, SMALL_ANGLE, IDLE, 1, 1
227, 28477420,  -1,   4,  -9,   0,   0,   0,  -6,   4,   0,  10,   6,   3, 1000, 1.081, 33.975, 225,   3,  -2,   4, -108, 447, 2069,   0,   0,   0,   0, 1206, 1206, 1207, 1200, -36498, ANGLE_MODE, SMALL_ANGLE, IDLE, 1, 1
228, 28478436,  -1,   4,  -8,   0,   0,   0,  -8,   4,   0,  10,   6,   3, 1000, 1.081, 33.975, 225,   2,  -2,   3, -109, 445, 2068,   0,   0,   0,   0, 1208, 1206, 1205, 1200, -36498, ANGLE_MODE, SMALL_ANGLE, IDLE, 1, 1
229, 28479441,  -1,   4,  -6,   0,   0,   0,  -7,   3,   0,  10,   6,   3, 1000, 1.081, 33.975, 225,   2,  -2,   3, -109, 443, 2068,   0,   0,   0,   0, 1207, 1205, 1204, 1200, -36498, ANGLE_MODE, SMALL_ANGLE, IDLE, 1, 1
230, 28480447,  -1,   3,  -5,   0,   0,   0,  -4,   1,   0,  10,   6,   3, 1000, 1.081, 33.975, 225,   2,  -2,   2, -110, 441, 2068,   0,   0,   0,   0, 1204, 1204, 1204, 1200, -36498, ANGLE_MODE, SMALL_ANGLE, IDLE, 1, 1
231, 28481457,   0,   3,  -3,   0,   0,   0,  -1,   0,   0,  10,   6,   3, 1000, 1.081, 33.975, 225,   2,  -2,   2, -111, 440, 2067,   0,   0,   0,   0, 1202, 1201, 1204, 1200, -36498, ANGLE_MODE, SMALL_ANGLE, IDLE, 1, 1
232, 28482464,   0,   3,  -2,   0,   0,   0,   0,  -1,   0,  10,   6,   3, 1000, 1.081, 33.975, 225,   2,  -2,   1, -112, 439, 2068,   0,   0,   0,   0, 1200, 1200, 1204, 1200, -36498, ANGLE_MODE, SMALL_ANGLE, IDLE, 1, 1
233, 28483477,   0,   3,  -2,   0,   0,   0,   1,  -2,   0,  10,   6,   3, 1000, 1.081, 33.975, 225,   2,  -1,   1, -113, 440, 2069,   0,   0,   0,   0, 1200, 1200, 1204, 1200, -36498, ANGLE_MODE, SMALL_ANGLE, IDLE, 1, 1
234, 28484492,   0,   3,  -3,   0,   0,   0,   2,  -2,   0,  10,   6,   3, 1000, 1.081, 33.975, 225,   2,  -1,   1, -113, 440, 2069,   0,   0,   0,   0, 1200, 1200, 1205, 1200, -36498, ANGLE_MODE, SMALL_ANGLE, IDLE, 1, 1
235, 28485506,   0,   3,  -1,   0,   0,   0,   3,  -1,   0,  10,   6,   3, 1000, 1.081, 33.975, 225,   1,  -2,   1, -113, 441, 2069,   0,   0,   0,   0, 1200, 1200, 1205, 1200, -36498, ANGLE_MODE, SMALL_ANGLE, IDLE, 1, 1
236, 28486519,   0,   3,   0,   0,   0,   0,   4,  -1,   0,  10,   6,   3, 1000, 1.081, 33.975, 225,   1,  -2,   0, -113, 443, 2068,   0,   0,   0,   0, 1200, 1200, 1206, 1202, -36498, ANGLE_MODE, SMALL_ANGLE, IDLE, 1, 1
237, 28487537,   1,   3,   0,   0,   0,   0,   5,   0,   0,  10,   6,   3, 1000, 1.081, 33.975, 225,   0,  -1,   0, -113, 445, 2068,   0,   0,   0,   0, 1200, 1200, 1207, 1203, -36498, ANGLE_MODE, SMALL_ANGLE, IDLE, 1, 1
238, 28488551,   1,   3,   1,   0,   0,   0,   6,   0,   0,  10,   6,   3, 1000, 1.081, 33.975, 225,   0,  -2,   0, -112, 446, 2067,   0,   0,   0,   0, 1200, 1200, 1208, 1204, -36498, ANGLE_MODE, SMALL_ANGLE, IDLE, 1, 1
239, 28489567,   1,   4,   1,   0,   0,   0,   6,   0,   0,  10,   6,   3, 1000, 1.081, 33.975, 225,   1,  -2,   0, -111, 447, 2067,   0,   0,   0,   0, 1200, 1200, 1208, 1203, -36498, ANGLE_MODE, SMALL_ANGLE, IDLE, 1, 1
240, 28490580,   0,   4,   1,   0,   0,   0,   4,   1,   0,  10,   6,   3, 1000, 1.081, 33.975, 225,   1,  -2,   0, -109, 447, 2068,   0,   0,   0,   0, 1201, 1200, 1206, 1200, -36498, ANGLE_MODE, SMALL_ANGLE, IDLE, 1, 1
241, 28491583,   0,   4,   0,   0,   0,   0,   0,   1,   0,  10,   6,   3, 1000, 1.081, 33.975, 225,   2,  -2,   0, -108, 446, 2068,   0,   0,   0,   0, 1204, 1200, 1205, 1200, -36498, ANGLE_MODE, SMALL_ANGLE, IDLE, 1, 1
242, 28492590,   0,   4,  -1,   0,   0,   0,  -3,   2,   0,  10,   6,   3, 1000, 1.081, 33.975, 225,   1,  -2,   1, -107, 445, 2068,   0,   0,   0,   0, 1207, 1200, 1204, 1200, -36498, ANGLE_MODE, SMALL_ANGLE, IDLE, 1, 1
243, 28493598,   0,   4,  -2,   0,   0,   0,  -5,   2,   0,  10,   6,   3, 1000, 1.081, 33.975, 225,   2,  -2,   1, -106, 444, 2068,   0,   0,   0,   0, 1208, 1200, 1203, 1200, -36498, ANGLE_MODE, SMALL_ANGLE, IDLE, 1, 1
244, 28494605,   0,   4,  -2,   0,   0,   0,  -4,   2,   0,  10,   6,   3, 1000, 1.081, 33.975, 225,   1,  -2,   1, -105, 442, 2067,   0,   0,   0,   0, 1207, 1200, 1203, 1200, -36498, ANGLE_MODE, SMALL_ANGLE, IDLE, 1, 1
245, 28495614,   1,   4,  -2,   0,   0,   0,  -2,   1,   0,  10,   6,   3, 1000, 1.081, 33.975, 225,   1,  -2,   1, -105, 441, 2067,   0,   0,   0,   0, 1203, 1200, 1205, 1200, -36498, ANGLE_MODE, SMALL_ANGLE, IDLE, 1, 1
246, 28496624,   1,   4,  -2,   0,   0,   0,   1,   0,   0,  10,   6,   3, 1000, 1.081, 33.975, 225,   0,  -2,   1, -104, 440, 2066,   0,   0,   0,   0, 1200, 1200, 1208, 1200, -36498, ANGLE_MODE, SMALL_ANGLE, IDLE, 1, 1
247, 28497637,   2,   4,   0,   0,   0,   0,   5,   0,   0,  10,   6,   3, 1000, 1.081, 33.975, 225,   0,  -2,   0, -105, 440, 2066,   0,   0,   0,   0, 1200, 1200, 1208, 1202, -36498, ANGLE_MODE, SMALL_ANGLE, IDLE, 1, 1
248, 28498652,   2,   4,   2,   0,   0,   0,   7,   0,   0,  10,   6,   3, 1000, 1.081, 33.975, 225,   0,  -2,  -1, -105, 440, 2067,   0,   0,   0,   0, 1200, 1200, 1208, 1207, -36498, ANGLE_MODE, SMALL_ANGLE, IDLE, 1, 1
249, 28499667,   2,   4,   2,   0,   0,   0,   7,   0,   0,  10,   6,   3, 1000, 1.081, 33.975, 225,   0,  -2,  -1, -105, 440, 2067,   0,   0,   0,   0, 1200, 1200, 1208, 1207, -36498, ANGLE_MODE, SMALL_ANGLE, IDLE, 1, 1
250, 28500678,   2,   4,   2,   0,   0,   0,   5,   0,   0,  10,   6,   3, 1000, 1.081, 33.975, 225,   0,  -2,  -1, -105, 442, 2066,   0,   0,   0,   0, 1200, 1200, 1207, 1204, -36498, ANGLE_MODE, SMALL_ANGLE, IDLE, 1, 1
251, 28501685,   1,   4,   1,   0,   0,   0,   2,   0,   0,  10,   6,   3, 1000, 1.081, 33.975, 225,   0,  -2,   0, -106, 443, 2065,   0,   0,   0,   0, 1201, 1200, 1205, 1201, -36498, ANGLE_MODE, SMALL_ANGLE, IDLE, 1, 1
252, 28502701,   0,   3,   0,   0,   0,   0,  -1,   0,   0,  10,   6,   3, 1000, 1.081, 33.975, 225,   1,  -2,   1, -105, 445, 2065,   0,   0,   0,   0, 1202, 1200, 1202, 1200, -36498, ANGLE_MODE, SMALL_ANGLE, IDLE, 1, 1
253, 28503717,   0,   3,  -3,   0,   0,   0,  -5,  -1,   0,  10,   6,   3, 1000, 1.081, 33.975, 225,   2,  -2,   2, -105, 446, 2064,   0,   0,   0,   0, 1204, 1205, 1200, 1200, -36498, ANGLE_MODE, SMALL_ANGLE, IDLE, 1, 1
254, 28504725,   0,   3,  -4,   0,   0,   0,  -8,  -1,   0,  10,   6,   3, 1000, 1.081, 33.975, 225,   2,  -2,   2, -104, 447, 2064,   0,   0,   0,   0, 1205, 1208, 1200, 1200, -36498, ANGLE_MODE, SMALL_ANGLE, IDLE, 1, 1
255, 28505744,   0,   3,  -1,   0,   0,   0,  -9,  -1,   0,  10,   6,   3, 1000, 1.081, 33.975, 225,   2,  -2,   1, -102, 448, 2065,   0,   0,   0,   0, 1208, 1207, 1200, 1200, -36498, ANGLE_MODE, SMALL_ANGLE, IDLE, 1, 1
256, 28506752,   0,   4,   0,   0,   0,   0,  -8,   0,   0,  10,   6,   3, 1000, 1.081, 33.975, 225,   2,  -2,   0, -100, 449, 2066,   0,   0,   0,   0, 1209, 1204, 1200, 1200, -36498, ANGLE_MODE, SMALL_ANGLE, IDLE, 1, 1
257, 28507760,   0,   4,   0,   0,   0,   0,  -5,   0,   0,  10,   6,   3, 1000, 1.081, 33.975, 225,   2,  -2,   0, -99, 449, 2067,   0,   0,   0,   0, 1208, 1200, 1200, 1200, -36498, ANGLE_MODE, SMALL_ANGLE, IDLE, 1, 1
258, 28508765,   0,   4,   0,   0,   0,   0,  -1,   1,   0,  10,   6,   3, 1000, 1.081, 33.975, 225,   2,  -2,   0, -97, 448, 2067,   0,   0,   0,   0, 1206, 1200, 1203, 1200, -36498, ANGLE_MODE, SMALL_ANGLE, IDLE, 1, 1
259, 28509772,   0,   4,   0,   0,   0,   0,   0,   2,   0,  10,   5,   3, 1000, 1.081, 33.975, 225,   2,  -2,   0, -95, 447, 2067,   0,   0,   0,   0, 1204, 1200, 1205, 1200, -36498, ANGLE_MODE, SMALL_ANGLE, IDLE, 1, 1
260, 28510781,   0,   4,  -1,   0,   0,   0,   2,   1,   0,  10,   5,   3, 1000, 1.081, 34.075, 225,   2,  -2,   1, -94, 446, 2067,   0,   0,   0,   0, 1202, 1200, 1207, 1200, -36498, ANGLE_MODE, SMALL_ANGLE, IDLE, 1, 1
261, 28511795,   0,   4,  -3,   0,   0,   0,   2,   1,   0,  10,   5,   3, 1000, 1.081, 34.075, 225,   1,  -2,   1, -93, 445, 2067,   0,   0,   0,   0, 1200, 1200, 1208, 1200, -36498, ANGLE_MODE, SMALL_ANGLE, IDLE, 1, 1
262, 28512808,   0,   4,  -2,   0,   0,   0,   2,   0,   0,  10,   5,   3, 1000, 1.081, 34.075, 225,   1,  -2,   1, -93, 445, 2067,   0,   0,   0,   0, 1200, 1200, 1207, 1200, -36498, ANGLE_MODE, SMALL_ANGLE, IDLE, 1, 1
263, 28513821,   1,   4,   0,   0,   0,   0,   3,   0,   0,  10,   5,   3, 1000, 1.081, 34.075, 225,   0,  -2,   1, -93, 445, 2066,   0,   0,   0,   0, 1200, 1200, 1207, 1200, -36498, ANGLE_MODE, SMALL_ANGLE, IDLE, 1, 1
264, 28514831,   2,   4,   1,   0,   0,   0,   5,   0,   0,  10,   5,   3, 1000, 1.081, 34.075, 225,   0,  -2,   0, -93, 445, 2066,   0,   0,   0,   0, 1200, 1200, 1207, 1203, -36498, ANGLE_MODE, SMALL_ANGLE, IDLE, 1, 1
265, 28515837,   1,   4,   4,   0,   0,   0,   6,   0,   0,  10,   5,   3, 1000, 1.081, 34.075, 225,   0,  -2,  -1, -93, 445, 2067,   0,   0,   0,   0, 1200, 1200, 1206, 1206, -36498, ANGLE_MODE, SMALL_ANGLE, IDLE, 1, 1
266, 28516853,   1,   3,   4,   0,   0,   0,   5,   0,   0,  10,   5,   3, 1000, 1.081, 34.075, 225,   0,  -2,  -1, -94, 446, 2066,   0,   0,   0,   0, 1201, 1200, 1205, 1206, -36498, ANGLE_MODE, SMALL_ANGLE, IDLE, 1, 1
267, 28517866,   0,   3,   5,   0,   0,   0,   3,   0,   0,  10,   5,   3, 1000, 1.081, 34.075, 225,   1,  -1,  -2, -94, 446, 2066,   0,   0,   0,   0, 1203, 1200, 1201, 1204, -36498, ANGLE_MODE, SMALL_ANGLE, IDLE, 1, 1
268, 28518872,   0,   2,   4,   0,   0,   0,  -1,  -2,   0,  10,   5,   3, 1000, 1.081, 34.075, 225,   2,  -1,  -1, -94, 448, 2066,   0,   0,   0,   0, 1205, 1200, 1200, 1202, -36498, ANGLE_MODE, SMALL_ANGLE, IDLE, 1, 1
